[
  {
    "id": "landmark-mount-fuji",
    "name": "Mount Fuji",
    "nameZh": "富士山",
    "type": "volcano",
    "latitude": 35.3606,
    "longitude": 138.7274,
    "minZoomRank": 1,
    "importance": 0.99,
    "countryCode": "JP",
    "admin1": "Shizuoka/Yamanashi",
    "tourismHint": "日本最高峰，天氣清楚時非常適合從機窗辨識"
  },
  {
    "id": "landmark-taipei-101",
    "name": "Taipei 101",
    "nameZh": "台北101",
    "type": "landmark",
    "latitude": 25.033611,
    "longitude": 121.565,
    "minZoomRank": 1,
    "importance": 0.95,
    "countryCode": "TW",
    "admin1": "Taipei",
    "tourismHint": "台北信義區地標"
  },
  {
    "id": "landmark-tokyo-skytree",
    "name": "Tokyo Skytree",
    "nameZh": "東京晴空塔",
    "type": "landmark",
    "latitude": 35.7101,
    "longitude": 139.8107,
    "minZoomRank": 1,
    "importance": 0.93,
    "countryCode": "JP",
    "admin1": "Tokyo",
    "tourismHint": "東京東側最醒目的高塔"
  },
  {
    "id": "landmark-tokyo-tower",
    "name": "Tokyo Tower",
    "nameZh": "東京鐵塔",
    "type": "landmark",
    "latitude": 35.6586,
    "longitude": 139.7454,
    "minZoomRank": 2,
    "importance": 0.88,
    "countryCode": "JP",
    "admin1": "Tokyo",
    "tourismHint": "東京港區經典地標"
  },
  {
    "id": "landmark-tokyo-bay",
    "name": "Tokyo Bay",
    "nameZh": "東京灣",
    "type": "bay",
    "latitude": 35.45,
    "longitude": 139.82,
    "minZoomRank": 1,
    "importance": 0.86,
    "countryCode": "JP",
    "admin1": "Tokyo/Chiba/Kanagawa",
    "tourismHint": "東京進場時常見的海灣輪廓"
  },
  {
    "id": "landmark-lake-ashi",
    "name": "Lake Ashi",
    "nameZh": "蘆之湖",
    "type": "lake",
    "latitude": 35.2,
    "longitude": 139.0,
    "minZoomRank": 2,
    "importance": 0.76,
    "countryCode": "JP",
    "admin1": "Kanagawa",
    "tourismHint": "箱根火山湖，常與富士山同框"
  },
  {
    "id": "landmark-izu-peninsula",
    "name": "Izu Peninsula",
    "nameZh": "伊豆半島",
    "type": "peninsula",
    "latitude": 34.85,
    "longitude": 139.05,
    "minZoomRank": 2,
    "importance": 0.72,
    "countryCode": "JP",
    "admin1": "Shizuoka",
    "tourismHint": "東京灣南側的半島地形"
  },
  {
    "id": "landmark-okinawa-main-island",
    "name": "Okinawa Island",
    "nameZh": "沖繩本島",
    "type": "island",
    "latitude": 26.5,
    "longitude": 127.95,
    "minZoomRank": 2,
    "importance": 0.8,
    "countryCode": "JP",
    "admin1": "Okinawa",
    "tourismHint": "台日航線南側常見島鏈"
  },
  {
    "id": "landmark-kerama-islands",
    "name": "Kerama Islands",
    "nameZh": "慶良間群島",
    "type": "islandGroup",
    "latitude": 26.2,
    "longitude": 127.33,
    "minZoomRank": 3,
    "importance": 0.62,
    "countryCode": "JP",
    "admin1": "Okinawa",
    "tourismHint": "沖繩西側海色很明顯的群島"
  },
  {
    "id": "landmark-yakushima",
    "name": "Yakushima",
    "nameZh": "屋久島",
    "type": "island",
    "latitude": 30.35,
    "longitude": 130.52,
    "minZoomRank": 3,
    "importance": 0.68,
    "countryCode": "JP",
    "admin1": "Kagoshima",
    "tourismHint": "日本南方世界自然遺產島嶼"
  },
  {
    "id": "city-tokyo",
    "name": "Tokyo",
    "nameZh": "東京",
    "type": "majorCity",
    "latitude": 35.6762,
    "longitude": 139.6503,
    "minZoomRank": 1,
    "importance": 1,
    "population": 14000000,
    "countryCode": "JP",
    "admin1": "Tokyo"
  },
  {
    "id": "city-yokohama",
    "name": "Yokohama",
    "nameZh": "橫濱",
    "type": "majorCity",
    "latitude": 35.4437,
    "longitude": 139.638,
    "minZoomRank": 2,
    "importance": 0.82,
    "population": 3700000,
    "countryCode": "JP",
    "admin1": "Kanagawa"
  },
  {
    "id": "city-nagoya",
    "name": "Nagoya",
    "nameZh": "名古屋",
    "type": "majorCity",
    "latitude": 35.1815,
    "longitude": 136.9066,
    "minZoomRank": 2,
    "importance": 0.8,
    "population": 2300000,
    "countryCode": "JP",
    "admin1": "Aichi"
  },
  {
    "id": "city-osaka",
    "name": "Osaka",
    "nameZh": "大阪",
    "type": "majorCity",
    "latitude": 34.6937,
    "longitude": 135.5023,
    "minZoomRank": 2,
    "importance": 0.86,
    "population": 2700000,
    "countryCode": "JP",
    "admin1": "Osaka"
  },
  {
    "id": "city-kyoto",
    "name": "Kyoto",
    "nameZh": "京都",
    "type": "majorCity",
    "latitude": 35.0116,
    "longitude": 135.7681,
    "minZoomRank": 2,
    "importance": 0.78,
    "population": 1450000,
    "countryCode": "JP",
    "admin1": "Kyoto",
    "tourismHint": "古都與寺院群集中區"
  },
  {
    "id": "city-fukuoka",
    "name": "Fukuoka",
    "nameZh": "福岡",
    "type": "majorCity",
    "latitude": 33.5902,
    "longitude": 130.4017,
    "minZoomRank": 2,
    "importance": 0.76,
    "population": 1600000,
    "countryCode": "JP",
    "admin1": "Fukuoka"
  },
  {
    "id": "city-naha",
    "name": "Naha",
    "nameZh": "那霸",
    "type": "majorCity",
    "latitude": 26.2124,
    "longitude": 127.6792,
    "minZoomRank": 2,
    "importance": 0.72,
    "population": 320000,
    "countryCode": "JP",
    "admin1": "Okinawa"
  },
  {
    "id": "city-taipei",
    "name": "Taipei",
    "nameZh": "台北",
    "type": "majorCity",
    "latitude": 25.033,
    "longitude": 121.5654,
    "minZoomRank": 1,
    "importance": 0.9,
    "population": 2500000,
    "countryCode": "TW",
    "admin1": "Taipei"
  },
  {
    "id": "city-new-taipei",
    "name": "New Taipei",
    "nameZh": "新北",
    "type": "majorCity",
    "latitude": 25.0169,
    "longitude": 121.4628,
    "minZoomRank": 2,
    "importance": 0.78,
    "population": 4000000,
    "countryCode": "TW",
    "admin1": "New Taipei"
  },
  {
    "id": "city-taichung",
    "name": "Taichung",
    "nameZh": "台中",
    "type": "majorCity",
    "latitude": 24.1477,
    "longitude": 120.6736,
    "minZoomRank": 2,
    "importance": 0.72,
    "population": 2800000,
    "countryCode": "TW",
    "admin1": "Taichung"
  },
  {
    "id": "city-kaohsiung",
    "name": "Kaohsiung",
    "nameZh": "高雄",
    "type": "majorCity",
    "latitude": 22.6273,
    "longitude": 120.3014,
    "minZoomRank": 2,
    "importance": 0.74,
    "population": 2700000,
    "countryCode": "TW",
    "admin1": "Kaohsiung"
  },
  {
    "id": "landmark-sun-moon-lake",
    "name": "Sun Moon Lake",
    "nameZh": "日月潭",
    "type": "lake",
    "latitude": 23.865,
    "longitude": 120.916,
    "minZoomRank": 3,
    "importance": 0.64,
    "countryCode": "TW",
    "admin1": "Nantou",
    "tourismHint": "台灣中部湖泊地標"
  },
  {
    "id": "landmark-taroko-gorge",
    "name": "Taroko Gorge",
    "nameZh": "太魯閣",
    "type": "landmark",
    "latitude": 24.158,
    "longitude": 121.621,
    "minZoomRank": 3,
    "importance": 0.66,
    "countryCode": "TW",
    "admin1": "Hualien",
    "tourismHint": "台灣東部峽谷地形"
  },
  {
    "id": "landmark-jade-mountain",
    "name": "Jade Mountain",
    "nameZh": "玉山",
    "type": "mountain",
    "latitude": 23.47,
    "longitude": 120.957,
    "minZoomRank": 3,
    "importance": 0.7,
    "countryCode": "TW",
    "admin1": "Nantou/Chiayi/Kaohsiung",
    "tourismHint": "台灣最高峰"
  },
  {
    "id": "city-seoul",
    "name": "Seoul",
    "nameZh": "首爾",
    "type": "majorCity",
    "latitude": 37.5665,
    "longitude": 126.978,
    "minZoomRank": 1,
    "importance": 0.92,
    "population": 9700000,
    "countryCode": "KR",
    "admin1": "Seoul"
  },
  {
    "id": "city-busan",
    "name": "Busan",
    "nameZh": "釜山",
    "type": "majorCity",
    "latitude": 35.1796,
    "longitude": 129.0756,
    "minZoomRank": 2,
    "importance": 0.78,
    "population": 3400000,
    "countryCode": "KR",
    "admin1": "Busan"
  },
  {
    "id": "landmark-jeju-island",
    "name": "Jeju Island",
    "nameZh": "濟州島",
    "type": "island",
    "latitude": 33.3617,
    "longitude": 126.5292,
    "minZoomRank": 2,
    "importance": 0.76,
    "countryCode": "KR",
    "admin1": "Jeju",
    "tourismHint": "東亞航線常見火山島"
  },
  {
    "id": "city-shanghai",
    "name": "Shanghai",
    "nameZh": "上海",
    "type": "majorCity",
    "latitude": 31.2304,
    "longitude": 121.4737,
    "minZoomRank": 1,
    "importance": 0.92,
    "population": 24000000,
    "countryCode": "CN",
    "admin1": "Shanghai"
  },
  {
    "id": "city-hangzhou",
    "name": "Hangzhou",
    "nameZh": "杭州",
    "type": "majorCity",
    "latitude": 30.2741,
    "longitude": 120.1551,
    "minZoomRank": 2,
    "importance": 0.78,
    "population": 10000000,
    "countryCode": "CN",
    "admin1": "Zhejiang"
  },
  {
    "id": "landmark-west-lake",
    "name": "West Lake",
    "nameZh": "西湖",
    "type": "lake",
    "latitude": 30.246,
    "longitude": 120.14,
    "minZoomRank": 3,
    "importance": 0.66,
    "countryCode": "CN",
    "admin1": "Zhejiang",
    "tourismHint": "杭州城市西側湖泊地標"
  },
  {
    "id": "city-fuzhou",
    "name": "Fuzhou",
    "nameZh": "福州",
    "type": "majorCity",
    "latitude": 26.0745,
    "longitude": 119.2965,
    "minZoomRank": 2,
    "importance": 0.68,
    "population": 8000000,
    "countryCode": "CN",
    "admin1": "Fujian"
  },
  {
    "id": "city-xiamen",
    "name": "Xiamen",
    "nameZh": "廈門",
    "type": "majorCity",
    "latitude": 24.4798,
    "longitude": 118.0894,
    "minZoomRank": 2,
    "importance": 0.68,
    "population": 5200000,
    "countryCode": "CN",
    "admin1": "Fujian"
  },
  {
    "id": "city-hong-kong",
    "name": "Hong Kong",
    "nameZh": "香港",
    "type": "majorCity",
    "latitude": 22.3193,
    "longitude": 114.1694,
    "minZoomRank": 1,
    "importance": 0.88,
    "population": 7400000,
    "countryCode": "HK",
    "admin1": "Hong Kong"
  },
  {
    "id": "landmark-victoria-harbour",
    "name": "Victoria Harbour",
    "nameZh": "維多利亞港",
    "type": "harbour",
    "latitude": 22.294,
    "longitude": 114.169,
    "minZoomRank": 2,
    "importance": 0.72,
    "countryCode": "HK",
    "admin1": "Hong Kong",
    "tourismHint": "香港最容易辨識的海港地形"
  },
  {
    "id": "city-macau",
    "name": "Macau",
    "nameZh": "澳門",
    "type": "majorCity",
    "latitude": 22.1987,
    "longitude": 113.5439,
    "minZoomRank": 2,
    "importance": 0.68,
    "population": 680000,
    "countryCode": "MO",
    "admin1": "Macau"
  },
  {
    "id": "city-manila",
    "name": "Manila",
    "nameZh": "馬尼拉",
    "type": "majorCity",
    "latitude": 14.5995,
    "longitude": 120.9842,
    "minZoomRank": 1,
    "importance": 0.82,
    "population": 1800000,
    "countryCode": "PH",
    "admin1": "Metro Manila"
  },
  {
    "id": "landmark-manila-bay",
    "name": "Manila Bay",
    "nameZh": "馬尼拉灣",
    "type": "bay",
    "latitude": 14.5,
    "longitude": 120.75,
    "minZoomRank": 2,
    "importance": 0.7,
    "countryCode": "PH",
    "admin1": "Luzon",
    "tourismHint": "呂宋島西側大海灣"
  },
  {
    "id": "city-hanoi",
    "name": "Hanoi",
    "nameZh": "河內",
    "type": "majorCity",
    "latitude": 21.0278,
    "longitude": 105.8342,
    "minZoomRank": 1,
    "importance": 0.76,
    "population": 8000000,
    "countryCode": "VN",
    "admin1": "Hanoi"
  },
  {
    "id": "city-ho-chi-minh-city",
    "name": "Ho Chi Minh City",
    "nameZh": "胡志明市",
    "type": "majorCity",
    "latitude": 10.8231,
    "longitude": 106.6297,
    "minZoomRank": 1,
    "importance": 0.78,
    "population": 9000000,
    "countryCode": "VN",
    "admin1": "Ho Chi Minh City"
  },
  {
    "id": "landmark-ha-long-bay",
    "name": "Ha Long Bay",
    "nameZh": "下龍灣",
    "type": "bay",
    "latitude": 20.91,
    "longitude": 107.183,
    "minZoomRank": 2,
    "importance": 0.72,
    "countryCode": "VN",
    "admin1": "Quang Ninh",
    "tourismHint": "北越沿海石灰岩海灣"
  },
  {
    "id": "city-bangkok",
    "name": "Bangkok",
    "nameZh": "曼谷",
    "type": "majorCity",
    "latitude": 13.7563,
    "longitude": 100.5018,
    "minZoomRank": 1,
    "importance": 0.82,
    "population": 10500000,
    "countryCode": "TH",
    "admin1": "Bangkok"
  },
  {
    "id": "city-kuala-lumpur",
    "name": "Kuala Lumpur",
    "nameZh": "吉隆坡",
    "type": "majorCity",
    "latitude": 3.139,
    "longitude": 101.6869,
    "minZoomRank": 1,
    "importance": 0.76,
    "population": 1800000,
    "countryCode": "MY",
    "admin1": "Kuala Lumpur"
  },
  {
    "id": "landmark-petronas-towers",
    "name": "Petronas Towers",
    "nameZh": "雙子星塔",
    "type": "landmark",
    "latitude": 3.1579,
    "longitude": 101.7116,
    "minZoomRank": 2,
    "importance": 0.68,
    "countryCode": "MY",
    "admin1": "Kuala Lumpur",
    "tourismHint": "吉隆坡市中心高樓地標"
  },
  {
    "id": "city-singapore",
    "name": "Singapore",
    "nameZh": "新加坡",
    "type": "majorCity",
    "latitude": 1.3521,
    "longitude": 103.8198,
    "minZoomRank": 1,
    "importance": 0.84,
    "population": 5900000,
    "countryCode": "SG",
    "admin1": "Singapore"
  },
  {
    "id": "city-jakarta",
    "name": "Jakarta",
    "nameZh": "雅加達",
    "type": "majorCity",
    "latitude": -6.2088,
    "longitude": 106.8456,
    "minZoomRank": 1,
    "importance": 0.8,
    "population": 10500000,
    "countryCode": "ID",
    "admin1": "Jakarta"
  },
  {
    "id": "landmark-mount-kinabalu",
    "name": "Mount Kinabalu",
    "nameZh": "京那巴魯山",
    "type": "mountain",
    "latitude": 6.075,
    "longitude": 116.558,
    "minZoomRank": 3,
    "importance": 0.66,
    "countryCode": "MY",
    "admin1": "Sabah",
    "tourismHint": "婆羅洲北部高山地標"
  }
]
