{"schemaVersion":"1.0.0","generatedFrom":"sha256:eff834a8727e06f28fc52b04393c462d074aecf9a7acd1b870e766240a995b6c","source":{"name":"Natural Earth","attribution":"Made with Natural Earth.","url":"https://naturalearth.s3.amazonaws.com/10m_cultural/ne_10m_populated_places.zip"},"contents":{"places":7342},"places":[{"id":"natural-earth-place-1159151629","name":"Hong Kong","nameZh":"香港","type":"majorCity","featureClass":"Admin-0 region capital","countryCode":"HK","countryName":"Hong Kong S.A.R.","latitude":22.306927,"longitude":114.183064,"population":7206000,"scalerank":0,"labelRank":0,"minZoom":3,"isCapital":false,"isWorldCity":true,"isMegaCity":true},{"id":"natural-earth-place-1159151627","name":"Singapore","nameZh":"新加坡","type":"majorCity","featureClass":"Admin-0 capital","countryCode":"SG","countryName":"Singapore","latitude":1.294979,"longitude":103.853875,"population":5183700,"scalerank":0,"labelRank":0,"minZoom":2.1,"isCapital":true,"isWorldCity":true,"isMegaCity":true},{"id":"natural-earth-place-1159151181","name":"San Juan","nameZh":"聖胡安","type":"majorCity","featureClass":"Admin-1 capital","countryCode":"PR","countryName":"Puerto Rico","latitude":18.440023,"longitude":-66.129979,"population":2478905,"scalerank":3,"labelRank":0,"minZoom":5,"isCapital":false,"isWorldCity":false,"isMegaCity":true},{"id":"natural-earth-place-1159151203","name":"Jerusalem","nameZh":"耶路撒冷","type":"majorCity","featureClass":"Admin-0 capital","countryCode":"IL","countryName":"Israel","admin1":"Jerusalem","latitude":31.778408,"longitude":35.206626,"population":1029300,"scalerank":3,"labelRank":0,"minZoom":3.7,"isCapital":true,"isWorldCity":false,"isMegaCity":false},{"id":"natural-earth-place-1159149385","name":"Kigali","nameZh":"吉佳利","type":"majorCity","featureClass":"Admin-0 capital","countryCode":"RW","countryName":"Rwanda","admin1":"Kigali City","latitude":-1.951644,"longitude":30.058586,"population":860000,"scalerank":4,"labelRank":0,"minZoom":5.1,"isCapital":true,"isWorldCity":false,"isMegaCity":true},{"id":"natural-earth-place-1159150443","name":"Port Louis","nameZh":"路易港","type":"majorCity","featureClass":"Admin-0 capital","countryCode":"MU","countryName":"Mauritius","latitude":-20.166639,"longitude":57.499994,"population":595491,"scalerank":4,"labelRank":0,"minZoom":5.6,"isCapital":true,"isWorldCity":false,"isMegaCity":false},{"id":"natural-earth-place-1159149085","name":"Macau","nameZh":"澳門","type":"majorCity","featureClass":"Admin-0 region capital","countryCode":"MO","countryName":"Macau S.A.R","latitude":22.202998,"longitude":113.545048,"population":568700,"scalerank":6,"labelRank":0,"minZoom":6,"isCapital":false,"isWorldCity":false,"isMegaCity":false},{"id":"natural-earth-place-1159150451","name":"Manama","nameZh":"麦纳麦","type":"majorCity","featureClass":"Admin-0 capital","countryCode":"BH","countryName":"Bahrain","latitude":26.236136,"longitude":50.583052,"population":563920,"scalerank":4,"labelRank":0,"minZoom":5.6,"isCapital":true,"isWorldCity":false,"isMegaCity":false},{"id":"natural-earth-place-1159150445","name":"Gaza City","nameZh":"加薩","type":"majorCity","featureClass":"Admin-0 region capital","countryCode":"PS","countryName":"Palestine","latitude":31.529999,"longitude":34.445019,"population":505700,"scalerank":4,"labelRank":0,"minZoom":5.6,"isCapital":false,"isWorldCity":false,"isMegaCity":false},{"id":"natural-earth-place-1159151189","name":"Hargeisa","nameZh":"哈爾格薩","type":"majorCity","featureClass":"Admin-0 capital","countryCode":"-99","countryName":"Somaliland","latitude":9.560022,"longitude":44.06531,"population":477876,"scalerank":3,"labelRank":0,"minZoom":5,"isCapital":true,"isWorldCity":false,"isMegaCity":false},{"id":"natural-earth-place-1159150439","name":"Las Palmas","nameZh":"拉斯帕爾馬斯","type":"majorCity","featureClass":"Admin-1 capital","countryCode":"ES","countryName":"Spain","latitude":28.099976,"longitude":-15.429999,"population":378495,"scalerank":4,"labelRank":0,"minZoom":5.1,"isCapital":false,"isWorldCity":false,"isMegaCity":false},{"id":"natural-earth-place-1159151199","name":"Valletta","nameZh":"瓦萊塔","type":"majorCity","featureClass":"Admin-0 capital","countryCode":"MT","countryName":"Malta","latitude":35.899733,"longitude":14.514711,"population":368250,"scalerank":3,"labelRank":0,"minZoom":5,"isCapital":true,"isWorldCity":false,"isMegaCity":false},{"id":"natural-earth-place-1159149097","name":"Santa Cruz de Tenerife","nameZh":"聖克魯斯省","type":"majorCity","featureClass":"Admin-1 capital","countryCode":"ES","countryName":"Spain","latitude":28.469979,"longitude":-16.250001,"population":336061,"scalerank":6,"labelRank":0,"minZoom":6,"isCapital":false,"isWorldCity":false,"isMegaCity":false},{"id":"natural-earth-place-1159146059","name":"Curepipe","nameZh":"居爾皮普","type":"majorCity","featureClass":"Populated place","countryCode":"MU","countryName":"Mauritius","latitude":-20.31619,"longitude":57.516634,"population":299975,"scalerank":7,"labelRank":0,"minZoom":6.7,"isCapital":false,"isWorldCity":false,"isMegaCity":false},{"id":"natural-earth-place-1159146025","name":"Mayagüez","nameZh":"馬亞圭斯","type":"majorCity","featureClass":"Populated place","countryCode":"PR","countryName":"Puerto Rico","latitude":18.20151,"longitude":-67.139711,"population":291339,"scalerank":7,"labelRank":0,"minZoom":6.7,"isCapital":false,"isWorldCity":false,"isMegaCity":false},{"id":"natural-earth-place-1159132349","name":"Al Khalil","nameZh":"希伯侖","type":"majorCity","featureClass":"Populated place","countryCode":"PS","countryName":"Palestine","latitude":31.540593,"longitude":35.095573,"population":280321,"scalerank":8,"labelRank":0,"minZoom":7,"isCapital":false,"isWorldCity":false,"isMegaCity":false},{"id":"natural-earth-place-1159150441","name":"Berbera","nameZh":"柏培拉","type":"majorCity","featureClass":"Populated place","countryCode":"-99","countryName":"Somaliland","latitude":10.43555,"longitude":45.016415,"population":242344,"scalerank":4,"labelRank":0,"minZoom":5.6,"isCapital":false,"isWorldCity":false,"isMegaCity":false},{"id":"natural-earth-place-1159151207","name":"Nassau","nameZh":"拿騷","type":"majorCity","featureClass":"Admin-0 capital","countryCode":"BS","countryName":"The Bahamas","latitude":25.08339,"longitude":-77.350044,"population":227940,"scalerank":3,"labelRank":0,"minZoom":5,"isCapital":true,"isWorldCity":false,"isMegaCity":false},{"id":"natural-earth-place-1159135751","name":"Nyanza","nameZh":"恩延扎","type":"majorCity","featureClass":"Populated place","countryCode":"RW","countryName":"Rwanda","admin1":"Southern","latitude":-2.349587,"longitude":29.740035,"population":225209,"scalerank":7,"labelRank":0,"minZoom":6.7,"isCapital":false,"isWorldCity":false,"isMegaCity":false},{"id":"natural-earth-place-1159151209","name":"Nicosia","nameZh":"尼古西亞","type":"majorCity","featureClass":"Admin-0 capital","countryCode":"CY","countryName":"Cyprus","latitude":35.166677,"longitude":33.366635,"population":224300,"scalerank":3,"labelRank":0,"minZoom":5,"isCapital":true,"isWorldCity":false,"isMegaCity":false},{"id":"natural-earth-place-1159146065","name":"Nablus","nameZh":"納布盧斯","type":"majorCity","featureClass":"Populated place","countryCode":"PS","countryName":"Palestine","latitude":32.221482,"longitude":35.254427,"population":215981,"scalerank":7,"labelRank":0,"minZoom":6.7,"isCapital":false,"isWorldCity":false,"isMegaCity":false},{"id":"natural-earth-place-1159146069","name":"La Romana","nameZh":"羅馬納","type":"majorCity","featureClass":"Admin-1 capital","countryCode":"DO","countryName":"Dominican Republic","admin1":"La Romana","latitude":18.417001,"longitude":-68.966602,"population":208437,"scalerank":7,"labelRank":0,"minZoom":6.7,"isCapital":false,"isWorldCity":false,"isMegaCity":false},{"id":"natural-earth-place-1159121897","name":"Ceerigaabo","nameZh":"埃里加博","type":"majorCity","featureClass":"Admin-1 capital","countryCode":"-99","countryName":"Somaliland","latitude":10.583298,"longitude":47.333305,"population":180000,"scalerank":10,"labelRank":0,"minZoom":9,"isCapital":false,"isWorldCity":false,"isMegaCity":false},{"id":"natural-earth-place-1159146023","name":"Ponce","nameZh":"龐塞","type":"majorCity","featureClass":"Populated place","countryCode":"PR","countryName":"Puerto Rico","latitude":18.000386,"longitude":-66.616642,"population":160334,"scalerank":7,"labelRank":0,"minZoom":6.7,"isCapital":false,"isWorldCity":false,"isMegaCity":false},{"id":"natural-earth-place-1159146055","name":"Willemstad","nameZh":"威廉斯塔德","type":"majorCity","featureClass":"Admin-0 region capital","countryCode":"CW","countryName":"Curacao","latitude":12.20043,"longitude":-69.019984,"population":146813,"scalerank":7,"labelRank":0,"minZoom":6.7,"isCapital":false,"isWorldCity":false,"isMegaCity":false},{"id":"natural-earth-place-1159150449","name":"Papeete","nameZh":"帕皮提","type":"majorCity","featureClass":"Admin-0 region capital","countryCode":"PF","countryName":"French Polynesia","latitude":-17.533363,"longitude":-149.566669,"population":131695,"scalerank":4,"labelRank":0,"minZoom":5.6,"isCapital":false,"isWorldCity":false,"isMegaCity":false},{"id":"natural-earth-place-1159149083","name":"Moroni","nameZh":"莫洛尼","type":"majorCity","featureClass":"Admin-0 capital","countryCode":"KM","countryName":"Comoros","latitude":-11.704158,"longitude":43.240244,"population":128698,"scalerank":6,"labelRank":0,"minZoom":6,"isCapital":true,"isWorldCity":false,"isMegaCity":false},{"id":"natural-earth-place-1159149065","name":"Agana","nameZh":"阿加尼亚","type":"majorCity","featureClass":"Admin-0 region capital","countryCode":"GU","countryName":"Guam","latitude":13.470016,"longitude":144.750017,"population":122411,"scalerank":6,"labelRank":0,"minZoom":6,"isCapital":false,"isWorldCity":false,"isMegaCity":false},{"id":"natural-earth-place-1159151205","name":"Praia","nameZh":"培亞","type":"majorCity","featureClass":"Admin-0 capital","countryCode":"CV","countryName":"Cape Verde","latitude":14.916698,"longitude":-23.516689,"population":113364,"scalerank":3,"labelRank":0,"minZoom":5,"isCapital":true,"isWorldCity":false,"isMegaCity":false},{"id":"natural-earth-place-1159151201","name":"Malé","nameZh":"馬累","type":"majorCity","featureClass":"Admin-0 capital","countryCode":"MV","countryName":"Maldives","latitude":4.166708,"longitude":73.499948,"population":112927,"scalerank":3,"labelRank":0,"minZoom":5,"isCapital":true,"isWorldCity":false,"isMegaCity":false},{"id":"natural-earth-place-1159132371","name":"Koszalin","nameZh":"科沙林","type":"majorCity","featureClass":"Populated place","countryCode":"PL","countryName":"Poland","admin1":"West Pomeranian","latitude":54.2,"longitude":16.183333,"population":107450,"scalerank":8,"labelRank":0,"minZoom":6.1,"isCapital":false,"isWorldCity":false,"isMegaCity":false},{"id":"natural-earth-place-1159146047","name":"Burco","nameZh":"布拉奧","type":"majorCity","featureClass":"Admin-1 capital","countryCode":"-99","countryName":"Somaliland","latitude":9.520387,"longitude":45.54,"population":106593,"scalerank":7,"labelRank":0,"minZoom":6.1,"isCapital":false,"isWorldCity":false,"isMegaCity":false},{"id":"natural-earth-place-1159151195","name":"São Tomé","nameZh":"圣多美","type":"majorCity","featureClass":"Admin-0 capital","countryCode":"ST","countryName":"Sao Tome and Principe","latitude":0.333402,"longitude":6.733325,"population":88219,"scalerank":3,"labelRank":0,"minZoom":5,"isCapital":true,"isWorldCity":false,"isMegaCity":false},{"id":"natural-earth-place-1159135755","name":"Gitarama","nameZh":"吉塔拉馬","type":"majorCity","featureClass":"Admin-1 capital","countryCode":"RW","countryName":"Rwanda","admin1":"Southern","latitude":-2.069604,"longitude":29.759982,"population":87613,"scalerank":7,"labelRank":0,"minZoom":8,"isCapital":false,"isWorldCity":false,"isMegaCity":false},{"id":"natural-earth-place-1159135777","name":"Ruhengeri","nameZh":"魯亨蓋里","type":"majorCity","featureClass":"Admin-1 capital","countryCode":"RW","countryName":"Rwanda","admin1":"Northern","latitude":-1.499613,"longitude":29.630015,"population":86685,"scalerank":7,"labelRank":0,"minZoom":6.7,"isCapital":false,"isWorldCity":false,"isMegaCity":false},{"id":"natural-earth-place-1159135763","name":"Gisenyi","nameZh":"吉塞尼","type":"majorCity","featureClass":"Admin-1 capital","countryCode":"RW","countryName":"Rwanda","admin1":"Western","latitude":-1.684666,"longitude":29.262906,"population":83623,"scalerank":7,"labelRank":0,"minZoom":6.7,"isCapital":false,"isWorldCity":false,"isMegaCity":false},{"id":"natural-earth-place-1159132339","name":"Jabal Ali","nameZh":"傑貝阿里","type":"majorCity","featureClass":"Populated place","countryCode":"AE","countryName":"United Arab Emirates","admin1":"Dubay","latitude":24.976239,"longitude":55.01074,"population":80000,"scalerank":8,"labelRank":0,"minZoom":7,"isCapital":false,"isWorldCity":false,"isMegaCity":false},{"id":"natural-earth-place-1159135759","name":"Butare","nameZh":"布塔雷市","type":"majorCity","featureClass":"Admin-1 capital","countryCode":"RW","countryName":"Rwanda","admin1":"Southern","latitude":-2.589624,"longitude":29.730009,"population":77000,"scalerank":7,"labelRank":0,"minZoom":8,"isCapital":false,"isWorldCity":false,"isMegaCity":false},{"id":"natural-earth-place-1159146071","name":"Mindelo","nameZh":"明德盧","type":"majorCity","featureClass":"Populated place","countryCode":"CV","countryName":"Cape Verde","latitude":16.883761,"longitude":-25.000009,"population":70611,"scalerank":7,"labelRank":0,"minZoom":6.7,"isCapital":false,"isWorldCity":false,"isMegaCity":false},{"id":"natural-earth-place-1159135773","name":"Byumba","nameZh":"比溫巴","type":"majorCity","featureClass":"Admin-1 capital","countryCode":"RW","countryName":"Rwanda","admin1":"Northern","latitude":-1.579556,"longitude":30.060015,"population":70593,"scalerank":7,"labelRank":0,"minZoom":8,"isCapital":false,"isWorldCity":false,"isMegaCity":false},{"id":"natural-earth-place-1159149067","name":"Arecibo","nameZh":"阿雷西沃","type":"majorCity","featureClass":"Populated place","countryCode":"PR","countryName":"Puerto Rico","latitude":18.440023,"longitude":-66.729994,"population":69307,"scalerank":6,"labelRank":0,"minZoom":6,"isCapital":false,"isWorldCity":false,"isMegaCity":false},{"id":"natural-earth-place-1159146057","name":"Oranjestad","nameZh":"奧臘涅斯塔德","type":"majorCity","featureClass":"Admin-0 region capital","countryCode":"AW","countryName":"Aruba","latitude":12.530384,"longitude":-70.028992,"population":68775,"scalerank":7,"labelRank":0,"minZoom":6.7,"isCapital":false,"isWorldCity":false,"isMegaCity":false},{"id":"natural-earth-place-1159146043","name":"Boorama","nameZh":"博拉马","type":"majorCity","featureClass":"Populated place","countryCode":"-99","countryName":"Somaliland","latitude":9.940413,"longitude":43.180041,"population":67664,"scalerank":7,"labelRank":0,"minZoom":6.7,"isCapital":false,"isWorldCity":false,"isMegaCity":false},{"id":"natural-earth-place-1159151197","name":"Apia","nameZh":"阿皮亞","type":"majorCity","featureClass":"Admin-0 capital","countryCode":"WS","countryName":"Samoa","latitude":-13.841545,"longitude":-171.738642,"population":61916,"scalerank":3,"labelRank":0,"minZoom":5,"isCapital":true,"isWorldCity":false,"isMegaCity":false},{"id":"natural-earth-place-1159121875","name":"Laascaanood","nameZh":"拉斯阿諾得","type":"majorCity","featureClass":"Admin-1 capital","countryCode":"-99","countryName":"Somaliland","latitude":8.433297,"longitude":47.3167,"population":60100,"scalerank":10,"labelRank":0,"minZoom":7,"isCapital":false,"isWorldCity":false,"isMegaCity":false},{"id":"natural-earth-place-1159122745","name":"San Andrés","nameZh":"聖安德列斯","type":"majorCity","featureClass":"Admin-1 capital","countryCode":"CO","countryName":"Colombia","latitude":12.562137,"longitude":-81.690327,"population":58257,"scalerank":9,"labelRank":0,"minZoom":7,"isCapital":false,"isWorldCity":false,"isMegaCity":false},{"id":"natural-earth-place-1159149089","name":"Andorra","nameZh":"老安道爾","type":"majorCity","featureClass":"Admin-0 capital","countryCode":"AD","countryName":"Andorra","latitude":42.500001,"longitude":1.516486,"population":53998,"scalerank":6,"labelRank":0,"minZoom":6,"isCapital":true,"isWorldCity":false,"isMegaCity":false},{"id":"natural-earth-place-1159146041","name":"Arrecife","nameZh":"阿雷西费","type":"majorCity","featureClass":"Populated place","countryCode":"ES","countryName":"Spain","latitude":28.969049,"longitude":-13.537833,"population":52944,"scalerank":7,"labelRank":0,"minZoom":6.1,"isCapital":false,"isWorldCity":false,"isMegaCity":false},{"id":"natural-earth-place-1159151185","name":"Hamilton","nameZh":"漢密爾頓","type":"majorCity","featureClass":"Admin-0 region capital","countryCode":"BM","countryName":"Bermuda","latitude":32.29419,"longitude":-64.783937,"population":52320,"scalerank":3,"labelRank":0,"minZoom":5,"isCapital":true,"isWorldCity":false,"isMegaCity":false},{"id":"natural-earth-place-1159150431","name":"Kingstown","nameZh":"金斯敦","type":"majorCity","featureClass":"Admin-0 capital","countryCode":"VC","countryName":"Saint Vincent and the Grenadines","latitude":13.148279,"longitude":-61.212062,"population":49485,"scalerank":4,"labelRank":0,"minZoom":5.1,"isCapital":true,"isWorldCity":false,"isMegaCity":false},{"id":"natural-earth-place-1159114229","name":"Kibuye","nameZh":"基布耶","type":"majorCity","featureClass":"Admin-1 capital","countryCode":"RW","countryName":"Rwanda","admin1":"Western","latitude":-2.050002,"longitude":29.35,"population":48024,"scalerank":10,"labelRank":0,"minZoom":8,"isCapital":false,"isWorldCity":false,"isMegaCity":false},{"id":"natural-earth-place-1159114247","name":"Kibungo","nameZh":"基本古","type":"majorCity","featureClass":"Admin-1 capital","countryCode":"RW","countryName":"Rwanda","admin1":"Eastern","latitude":-2.166696,"longitude":30.533302,"population":46240,"scalerank":10,"labelRank":0,"minZoom":9,"isCapital":false,"isWorldCity":false,"isMegaCity":false},{"id":"natural-earth-place-1159151187","name":"Nuku'alofa","nameZh":"努库阿洛法","type":"majorCity","featureClass":"Admin-0 capital","countryCode":"TO","countryName":"Tonga","latitude":-21.138512,"longitude":-175.220565,"population":42620,"scalerank":3,"labelRank":0,"minZoom":5,"isCapital":true,"isWorldCity":false,"isMegaCity":false},{"id":"natural-earth-place-1159132353","name":"Famagusta","nameZh":"法馬古斯塔","type":"majorCity","featureClass":"Admin-1 capital","countryCode":"-99","countryName":"Northern Cyprus","latitude":35.125025,"longitude":33.95001,"population":42526,"scalerank":8,"labelRank":0,"minZoom":7,"isCapital":false,"isWorldCity":false,"isMegaCity":false},{"id":"natural-earth-place-1159150433","name":"Castries","nameZh":"卡斯特里","type":"majorCity","featureClass":"Admin-0 capital","countryCode":"LC","countryName":"Saint Lucia","latitude":14.001974,"longitude":-61.000008,"population":37963,"scalerank":4,"labelRank":0,"minZoom":5.6,"isCapital":true,"isWorldCity":false,"isMegaCity":false},{"id":"natural-earth-place-1159149077","name":"Monaco","nameZh":"摩納哥","type":"majorCity","featureClass":"Admin-0 capital","countryCode":"MC","countryName":"Monaco","latitude":43.739646,"longitude":7.406913,"population":36371,"scalerank":6,"labelRank":0,"minZoom":5.1,"isCapital":true,"isWorldCity":false,"isMegaCity":false},{"id":"natural-earth-place-1159146061","name":"Vaduz","nameZh":"華杜茲","type":"majorCity","featureClass":"Admin-0 capital","countryCode":"LI","countryName":"Liechtenstein","latitude":47.133724,"longitude":9.51667,"population":36281,"scalerank":7,"labelRank":0,"minZoom":6.7,"isCapital":true,"isWorldCity":false,"isMegaCity":false},{"id":"natural-earth-place-1159146037","name":"Douglas","nameZh":"道格拉斯","type":"majorCity","featureClass":"Admin-0 region capital","countryCode":"IM","countryName":"Isle of Man","latitude":54.150427,"longitude":-4.480021,"population":35854,"scalerank":7,"labelRank":0,"minZoom":6.7,"isCapital":false,"isWorldCity":false,"isMegaCity":false},{"id":"natural-earth-place-1159150457","name":"Saint John's","nameZh":"聖約翰","type":"majorCity","featureClass":"Admin-0 capital","countryCode":"AG","countryName":"Antigua and Barbuda","latitude":17.118037,"longitude":-61.850034,"population":35499,"scalerank":4,"labelRank":0,"minZoom":5.1,"isCapital":true,"isWorldCity":false,"isMegaCity":false},{"id":"natural-earth-place-1159150447","name":"Saint George's","nameZh":"圣乔治","type":"majorCity","featureClass":"Admin-0 capital","countryCode":"GD","countryName":"Grenada","latitude":12.052633,"longitude":-61.741643,"population":33734,"scalerank":4,"labelRank":0,"minZoom":5.1,"isCapital":true,"isWorldCity":false,"isMegaCity":false},{"id":"natural-earth-place-1159151191","name":"Victoria","nameZh":"維多利亞","type":"majorCity","featureClass":"Admin-0 capital","countryCode":"SC","countryName":"Seychelles","latitude":-4.616632,"longitude":55.44999,"population":33576,"scalerank":3,"labelRank":0,"minZoom":5,"isCapital":true,"isWorldCity":false,"isMegaCity":false},{"id":"natural-earth-place-1159146021","name":"Christiansted","nameZh":"克里斯琴斯特德","type":"majorCity","featureClass":"Populated place","countryCode":"VI","countryName":"United States Virgin Islands","latitude":17.750375,"longitude":-64.749986,"population":32543,"scalerank":7,"labelRank":0,"minZoom":6.7,"isCapital":false,"isWorldCity":false,"isMegaCity":false},{"id":"natural-earth-place-1159146067","name":"Dzaoudzi","nameZh":"藻德濟","type":"majorCity","featureClass":"Populated place","countryCode":"YT","countryName":"France","admin1":"Moyotte","latitude":-12.787089,"longitude":45.275004,"population":32057,"scalerank":7,"labelRank":0,"minZoom":6.7,"isCapital":false,"isWorldCity":false,"isMegaCity":false},{"id":"natural-earth-place-1159146049","name":"Maydh","nameZh":"邁雅德","type":"majorCity","featureClass":"Populated place","countryCode":"-99","countryName":"Somaliland","latitude":10.980091,"longitude":47.097528,"population":30000,"scalerank":7,"labelRank":0,"minZoom":6.7,"isCapital":false,"isWorldCity":false,"isMegaCity":false},{"id":"natural-earth-place-1159146051","name":"San Marino","nameZh":"聖馬力諾","type":"majorCity","featureClass":"Admin-0 capital","countryCode":"SM","countryName":"San Marino","latitude":43.936096,"longitude":12.44177,"population":29579,"scalerank":7,"labelRank":0,"minZoom":6.1,"isCapital":true,"isWorldCity":false,"isMegaCity":false},{"id":"natural-earth-place-1159149079","name":"Tarawa","nameZh":"南塔拉瓦","type":"majorCity","featureClass":"Admin-0 capital","countryCode":"KI","countryName":"Kiribati","latitude":1.338188,"longitude":173.017571,"population":28802,"scalerank":6,"labelRank":0,"minZoom":6,"isCapital":true,"isWorldCity":false,"isMegaCity":false},{"id":"natural-earth-place-1159121963","name":"Kyrenia","nameZh":"凱里尼亞","type":"majorCity","featureClass":"Admin-1 capital","countryCode":"-99","countryName":"Northern Cyprus","latitude":35.325999,"longitude":33.333004,"population":26701,"scalerank":10,"labelRank":0,"minZoom":9,"isCapital":false,"isWorldCity":false,"isMegaCity":false},{"id":"natural-earth-place-1159149063","name":"Majuro","nameZh":"馬久羅","type":"majorCity","featureClass":"Admin-0 capital","countryCode":"MH","countryName":"Marshall Islands","latitude":7.103004,"longitude":171.38,"population":25400,"scalerank":6,"labelRank":0,"minZoom":6,"isCapital":true,"isWorldCity":false,"isMegaCity":false},{"id":"natural-earth-place-1159150453","name":"Freeport","nameZh":"弗里波特","type":"majorCity","featureClass":"Populated place","countryCode":"BS","countryName":"The Bahamas","latitude":26.533276,"longitude":-78.700013,"population":25383,"scalerank":4,"labelRank":0,"minZoom":5.6,"isCapital":false,"isWorldCity":false,"isMegaCity":false},{"id":"natural-earth-place-1159121947","name":"Ramallah","nameZh":"拉姆安拉","type":"majorCity","featureClass":"Admin-0 region capital","countryCode":"PS","countryName":"Palestine","latitude":31.902945,"longitude":35.206209,"population":24599,"scalerank":10,"labelRank":0,"minZoom":9,"isCapital":false,"isWorldCity":false,"isMegaCity":false},{"id":"natural-earth-place-1159150435","name":"Basseterre","nameZh":"巴斯特尔","type":"majorCity","featureClass":"Admin-0 capital","countryCode":"KN","countryName":"Saint Kitts and Nevis","latitude":17.302031,"longitude":-62.717009,"population":21887,"scalerank":4,"labelRank":0,"minZoom":5.6,"isCapital":true,"isWorldCity":false,"isMegaCity":false},{"id":"natural-earth-place-1159135769","name":"Cyangugu","nameZh":"尚古古","type":"majorCity","featureClass":"Admin-1 capital","countryCode":"RW","countryName":"Rwanda","admin1":"Western","latitude":-2.479605,"longitude":28.899983,"population":19900,"scalerank":7,"labelRank":0,"minZoom":6.7,"isCapital":false,"isWorldCity":false,"isMegaCity":false},{"id":"natural-earth-place-1159121931","name":"Daru","nameZh":"達魯","type":"majorCity","featureClass":"Admin-1 capital","countryCode":"PG","countryName":"Papua New Guinea","latitude":-9.109152,"longitude":143.233723,"population":15214,"scalerank":10,"labelRank":0,"minZoom":7,"isCapital":false,"isWorldCity":false,"isMegaCity":false},{"id":"natural-earth-place-1159114227","name":"Gikongoro","nameZh":"吉孔戈羅","type":"majorCity","featureClass":"Admin-1 capital","countryCode":"RW","countryName":"Rwanda","admin1":"Southern","latitude":-2.483298,"longitude":29.566702,"population":15000,"scalerank":10,"labelRank":0,"minZoom":9,"isCapital":false,"isWorldCity":false,"isMegaCity":false},{"id":"natural-earth-place-1159150429","name":"Pago Pago","nameZh":"帕果帕果","type":"majorCity","featureClass":"Admin-0 region capital","countryCode":"AS","countryName":"American Samoa","latitude":-14.276611,"longitude":-170.706645,"population":12576,"scalerank":4,"labelRank":0,"minZoom":5.6,"isCapital":false,"isWorldCity":false,"isMegaCity":false},{"id":"natural-earth-place-1159146053","name":"Koror","nameZh":"科羅","type":"majorCity","featureClass":"Admin-1 capital","countryCode":"PW","countryName":"Palau","latitude":7.345226,"longitude":134.469501,"population":11200,"scalerank":7,"labelRank":0,"minZoom":6.7,"isCapital":false,"isWorldCity":false,"isMegaCity":false},{"id":"natural-earth-place-1159132343","name":"Hilf","nameZh":"希爾夫","type":"majorCity","featureClass":"Populated place","countryCode":"OM","countryName":"Oman","admin1":"Ash Sharqiyah","latitude":20.656153,"longitude":58.876762,"population":8500,"scalerank":8,"labelRank":0,"minZoom":7,"isCapital":false,"isWorldCity":false,"isMegaCity":false},{"id":"natural-earth-place-1159146039","name":"Neiafu","nameZh":"內亞富","type":"majorCity","featureClass":"Populated place","countryCode":"TO","countryName":"Tonga","latitude":-18.649574,"longitude":-173.983293,"population":7391,"scalerank":7,"labelRank":0,"minZoom":6.7,"isCapital":false,"isWorldCity":false,"isMegaCity":false},{"id":"natural-earth-place-1159149073","name":"Melekeok","nameZh":"梅萊凱奧克","type":"majorCity","featureClass":"Admin-0 capital","countryCode":"PW","countryName":"Palau","latitude":7.487396,"longitude":134.626549,"population":7026,"scalerank":6,"labelRank":0,"minZoom":6,"isCapital":true,"isWorldCity":false,"isMegaCity":false},{"id":"natural-earth-place-1159146035","name":"Grand Turk","nameZh":"科伯恩城","type":"majorCity","featureClass":"Admin-0 region capital","countryCode":"TC","countryName":"Turks and Caicos Islands","latitude":21.466427,"longitude":-71.135979,"population":5801,"scalerank":7,"labelRank":0,"minZoom":6.7,"isCapital":false,"isWorldCity":false,"isMegaCity":false},{"id":"natural-earth-place-1159149099","name":"Avarua","nameZh":"阿瓦魯阿","type":"majorCity","featureClass":"Admin-1 capital","countryCode":"CK","countryName":"Cook Islands","latitude":-21.196226,"longitude":-159.785437,"population":5445,"scalerank":6,"labelRank":0,"minZoom":6,"isCapital":false,"isWorldCity":false,"isMegaCity":false},{"id":"natural-earth-place-1159149071","name":"Funafuti","nameZh":"富纳富提","type":"majorCity","featureClass":"Admin-0 capital","countryCode":"TV","countryName":"Tuvalu","latitude":-8.516652,"longitude":179.216647,"population":4749,"scalerank":6,"labelRank":0,"minZoom":6,"isCapital":true,"isWorldCity":false,"isMegaCity":false},{"id":"natural-earth-place-1159149061","name":"Palikir","nameZh":"帕利基尔","type":"majorCity","featureClass":"Admin-0 capital","countryCode":"FM","countryName":"Federated States of Micronesia","latitude":6.916644,"longitude":158.149974,"population":4645,"scalerank":6,"labelRank":0,"minZoom":6,"isCapital":true,"isWorldCity":false,"isMegaCity":false},{"id":"natural-earth-place-1159146033","name":"George Town","nameZh":"喬治敦","type":"majorCity","featureClass":"Admin-0 region capital","countryCode":"KY","countryName":"Cayman Islands","latitude":19.280437,"longitude":-81.329982,"population":4268,"scalerank":7,"labelRank":0,"minZoom":6.7,"isCapital":false,"isWorldCity":false,"isMegaCity":false},{"id":"natural-earth-place-1159146019","name":"Capitol Hill","nameZh":"卡皮托尔希尔","type":"majorCity","featureClass":"Admin-1 capital","countryCode":"MP","countryName":"Northern Mariana Islands","latitude":15.211254,"longitude":145.750576,"population":2500,"scalerank":7,"labelRank":0,"minZoom":6.1,"isCapital":false,"isWorldCity":false,"isMegaCity":false},{"id":"natural-earth-place-1159151183","name":"Stanley","nameZh":"史坦利","type":"majorCity","featureClass":"Admin-0 region capital","countryCode":"FK","countryName":"Falkland Islands","latitude":-51.700011,"longitude":-57.849968,"population":2213,"scalerank":3,"labelRank":0,"minZoom":5,"isCapital":false,"isWorldCity":false,"isMegaCity":false},{"id":"natural-earth-place-1159149081","name":"Tasiilaq","nameZh":"安馬赫夏利克","type":"majorCity","featureClass":"Admin-1 capital","countryCode":"GL","countryName":"Greenland","latitude":65.601869,"longitude":-37.633737,"population":1829,"scalerank":6,"labelRank":0,"minZoom":6,"isCapital":false,"isWorldCity":false,"isMegaCity":false},{"id":"natural-earth-place-1159149095","name":"Uummannaq","nameZh":"烏瑪納克","type":"majorCity","featureClass":"Populated place","countryCode":"GL","countryName":"Greenland","latitude":70.675023,"longitude":-52.122934,"population":1299,"scalerank":6,"labelRank":0,"minZoom":6,"isCapital":false,"isWorldCity":false,"isMegaCity":false},{"id":"natural-earth-place-1159121905","name":"Santo António","nameZh":"聖安東尼奧","type":"majorCity","featureClass":"Admin-1 capital","countryCode":"ST","countryName":"Sao Tome and Principe","latitude":1.645002,"longitude":7.412005,"population":1156,"scalerank":10,"labelRank":0,"minZoom":7,"isCapital":false,"isWorldCity":false,"isMegaCity":false},{"id":"natural-earth-place-1159146103","name":"McMurdo Station","nameZh":"麥克默多站","type":"majorCity","featureClass":"Scientific station","countryCode":"AQ","countryName":"Antarctica","latitude":-77.732282,"longitude":166.869416,"population":1000,"scalerank":7,"labelRank":0,"minZoom":3,"isCapital":false,"isWorldCity":false,"isMegaCity":false},{"id":"natural-earth-place-1159149075","name":"Bir Lehlou","nameZh":"比鄂-雷楼","type":"majorCity","featureClass":"Admin-0 capital alt","countryCode":"EH","countryName":"Western Sahara","latitude":26.119167,"longitude":-9.652522,"population":500,"scalerank":6,"labelRank":0,"minZoom":6,"isCapital":false,"isWorldCity":false,"isMegaCity":false},{"id":"natural-earth-place-1159146159","name":"Kullorsuaq","nameZh":"庫洛索格","type":"majorCity","featureClass":"Populated place","countryCode":"GL","countryName":"Greenland","latitude":74.578063,"longitude":-57.224986,"population":450,"scalerank":7,"labelRank":0,"minZoom":6.7,"isCapital":false,"isWorldCity":false,"isMegaCity":false},{"id":"natural-earth-place-1159146073","name":"Trepassey","nameZh":"特雷帕西","type":"majorCity","featureClass":"Populated place","countryCode":"CA","countryName":"Canada","admin1":"Newfoundland and Labrador","latitude":46.736978,"longitude":-53.363291,"population":398,"scalerank":7,"labelRank":0,"minZoom":6.7,"isCapital":false,"isWorldCity":false,"isMegaCity":false},{"id":"natural-earth-place-1159146151","name":"Esperanza Base","nameZh":"埃斯佩蘭薩站","type":"majorCity","featureClass":"Scientific station","countryCode":"AQ","countryName":"Antarctica","latitude":-63.375329,"longitude":-57.025902,"population":250,"scalerank":7,"labelRank":0,"minZoom":3,"isCapital":false,"isWorldCity":false,"isMegaCity":false},{"id":"natural-earth-place-1159146161","name":"Tasiusaq","nameZh":"塔昔沙克","type":"majorCity","featureClass":"Populated place","countryCode":"GL","countryName":"Greenland","latitude":73.369002,"longitude":-56.059814,"population":250,"scalerank":7,"labelRank":0,"minZoom":6.7,"isCapital":false,"isWorldCity":false,"isMegaCity":false},{"id":"natural-earth-place-1159146123","name":"Amundsen–Scott South Pole Station","nameZh":"阿蒙森-史考特南極站","type":"majorCity","featureClass":"Scientific station","countryCode":"AQ","countryName":"Antarctica","latitude":-90,"longitude":176.994452,"population":200,"scalerank":7,"labelRank":0,"minZoom":5,"isCapital":false,"isWorldCity":false,"isMegaCity":false},{"id":"natural-earth-place-1159146121","name":"Casey Station","nameZh":"凯西站","type":"majorCity","featureClass":"Scientific station","countryCode":"AQ","countryName":"Antarctica","latitude":-66.286086,"longitude":110.536214,"population":200,"scalerank":7,"labelRank":0,"minZoom":3,"isCapital":false,"isWorldCity":false,"isMegaCity":false},{"id":"natural-earth-place-1159149093","name":"Kangersuatsiaq","nameZh":"康爾蘇亞克","type":"majorCity","featureClass":"Populated place","countryCode":"GL","countryName":"Greenland","latitude":72.37964,"longitude":-55.549119,"population":200,"scalerank":6,"labelRank":0,"minZoom":6,"isCapital":false,"isWorldCity":false,"isMegaCity":false},{"id":"natural-earth-place-1159146111","name":"Mirny Station","nameZh":"米爾尼站","type":"majorCity","featureClass":"Scientific station","countryCode":"AQ","countryName":"Antarctica","latitude":-66.57553,"longitude":93.006289,"population":169,"scalerank":7,"labelRank":0,"minZoom":3,"isCapital":false,"isWorldCity":false,"isMegaCity":false},{"id":"natural-earth-place-1159146087","name":"Base Presidente Montalva","nameZh":"爱德华多·弗雷·蒙塔尔瓦总统基地","type":"majorCity","featureClass":"Scientific station","countryCode":"AQ","countryName":"Antarctica","latitude":-62.182744,"longitude":-58.907652,"population":150,"scalerank":7,"labelRank":0,"minZoom":5,"isCapital":false,"isWorldCity":false,"isMegaCity":false},{"id":"natural-earth-place-1159146077","name":"Marambio Base","nameZh":"马兰比奥海军准将站","type":"majorCity","featureClass":"Scientific station","countryCode":"AQ","countryName":"Antarctica","latitude":-64.232889,"longitude":-56.650015,"population":150,"scalerank":7,"labelRank":0,"minZoom":5,"isCapital":false,"isWorldCity":false,"isMegaCity":false},{"id":"natural-earth-place-1159146083","name":"Rothera Station","nameZh":"羅瑟拉站","type":"majorCity","featureClass":"Scientific station","countryCode":"AQ","countryName":"Antarctica","latitude":-67.564776,"longitude":-68.123541,"population":130,"scalerank":7,"labelRank":0,"minZoom":4,"isCapital":false,"isWorldCity":false,"isMegaCity":false},{"id":"natural-earth-place-1159146165","name":"Dumont d'Urville Station","nameZh":"迪蒙·迪维尔站","type":"majorCity","featureClass":"Scientific station","countryCode":"AQ","countryName":"Antarctica","latitude":-66.775051,"longitude":139.963684,"population":120,"scalerank":7,"labelRank":0,"minZoom":4,"isCapital":false,"isWorldCity":false,"isMegaCity":false},{"id":"natural-earth-place-1159146031","name":"Fox Bay","nameZh":"福克斯灣","type":"majorCity","featureClass":"Populated place","countryCode":"FK","countryName":"Falkland Islands","latitude":-51.95059,"longitude":-60.086963,"population":120,"scalerank":7,"labelRank":0,"minZoom":6.1,"isCapital":false,"isWorldCity":false,"isMegaCity":false},{"id":"natural-earth-place-1159146141","name":"Belgrano II Base","nameZh":"貝爾格拉諾二號站","type":"majorCity","featureClass":"Scientific station","countryCode":"AQ","countryName":"Antarctica","latitude":-77.866321,"longitude":-34.616683,"population":100,"scalerank":7,"labelRank":0,"minZoom":6.1,"isCapital":false,"isWorldCity":false,"isMegaCity":false},{"id":"natural-earth-place-1159146029","name":"Grytviken","nameZh":"古利德維肯","type":"majorCity","featureClass":"Admin-1 capital","countryCode":"GS","countryName":"South Georgia and the Islands","latitude":-54.280577,"longitude":-36.507989,"population":99,"scalerank":7,"labelRank":0,"minZoom":6.1,"isCapital":false,"isWorldCity":false,"isMegaCity":false},{"id":"natural-earth-place-1159146091","name":"King Sejong Station","nameZh":"世宗科學基地","type":"majorCity","featureClass":"Scientific station","countryCode":"AQ","countryName":"Antarctica","latitude":-62.224853,"longitude":-58.771599,"population":90,"scalerank":7,"labelRank":0,"minZoom":6.1,"isCapital":false,"isWorldCity":false,"isMegaCity":false},{"id":"natural-earth-place-1159146101","name":"Scott Base","nameZh":"斯科特基地","type":"majorCity","featureClass":"Scientific station","countryCode":"AQ","countryName":"Antarctica","latitude":-77.846938,"longitude":166.749102,"population":85,"scalerank":7,"labelRank":0,"minZoom":6.7,"isCapital":false,"isWorldCity":false,"isMegaCity":false},{"id":"natural-earth-place-1159146079","name":"Zucchelli Station","nameZh":"馬里奧·祖切利站","type":"majorCity","featureClass":"Scientific station","countryCode":"AQ","countryName":"Antarctica","latitude":-74.619193,"longitude":164.219027,"population":80,"scalerank":7,"labelRank":0,"minZoom":6.7,"isCapital":false,"isWorldCity":false,"isMegaCity":false},{"id":"natural-earth-place-1159146115","name":"Davis Station","nameZh":"戴维斯站","type":"majorCity","featureClass":"Scientific station","countryCode":"AQ","countryName":"Antarctica","latitude":-68.777674,"longitude":78.140735,"population":70,"scalerank":7,"labelRank":0,"minZoom":6.1,"isCapital":false,"isWorldCity":false,"isMegaCity":false},{"id":"natural-earth-place-1159146139","name":"Halley Station","nameZh":"哈雷研究站","type":"majorCity","featureClass":"Scientific station","countryCode":"AQ","countryName":"Antarctica","latitude":-76.092263,"longitude":-26.474157,"population":70,"scalerank":7,"labelRank":0,"minZoom":6.1,"isCapital":false,"isWorldCity":false,"isMegaCity":false},{"id":"natural-earth-place-1159146131","name":"Novolazarevskaya Station","nameZh":"諾沃拉扎列夫斯卡亞研究站","type":"majorCity","featureClass":"Scientific station","countryCode":"AQ","countryName":"Antarctica","latitude":-71.301235,"longitude":-11.850213,"population":70,"scalerank":7,"labelRank":0,"minZoom":6.1,"isCapital":false,"isWorldCity":false,"isMegaCity":false},{"id":"natural-earth-place-1159149091","name":"Savissivik","nameZh":"薩維斯維克","type":"majorCity","featureClass":"Populated place","countryCode":"GL","countryName":"Greenland","latitude":76.019476,"longitude":-65.112481,"population":66,"scalerank":6,"labelRank":0,"minZoom":6,"isCapital":false,"isWorldCity":false,"isMegaCity":false},{"id":"natural-earth-place-1159146137","name":"Maitri Station","nameZh":"邁特里站","type":"majorCity","featureClass":"Scientific station","countryCode":"AQ","countryName":"Antarctica","latitude":-70.78218,"longitude":11.730458,"population":65,"scalerank":7,"labelRank":0,"minZoom":6.1,"isCapital":false,"isWorldCity":false,"isMegaCity":false},{"id":"natural-earth-place-1159132379","name":"Artigas Base","nameZh":"阿蒂加斯站","type":"majorCity","featureClass":"Scientific station","countryCode":"AQ","countryName":"Antarctica","latitude":-62.173887,"longitude":-58.863864,"population":60,"scalerank":8,"labelRank":0,"minZoom":7,"isCapital":false,"isWorldCity":false,"isMegaCity":false},{"id":"natural-earth-place-1159146089","name":"Carlini Base","nameZh":"卡里尼站","type":"majorCity","featureClass":"Scientific station","countryCode":"AQ","countryName":"Antarctica","latitude":-62.224144,"longitude":-58.650476,"population":60,"scalerank":7,"labelRank":0,"minZoom":6.1,"isCapital":false,"isWorldCity":false,"isMegaCity":false},{"id":"natural-earth-place-1159146113","name":"Mawson Station","nameZh":"莫森站","type":"majorCity","featureClass":"Scientific station","countryCode":"AQ","countryName":"Antarctica","latitude":-67.61452,"longitude":62.875001,"population":60,"scalerank":7,"labelRank":0,"minZoom":6.1,"isCapital":false,"isWorldCity":false,"isMegaCity":false},{"id":"natural-earth-place-1159146167","name":"Showa Station","nameZh":"昭和基地","type":"majorCity","featureClass":"Scientific station","countryCode":"AQ","countryName":"Antarctica","latitude":-69.030393,"longitude":39.746083,"population":60,"scalerank":7,"labelRank":0,"minZoom":6.1,"isCapital":false,"isWorldCity":false,"isMegaCity":false},{"id":"natural-earth-place-1159146105","name":"Zhongshan Station","nameZh":"中国南极中山站","type":"majorCity","featureClass":"Scientific station","countryCode":"AQ","countryName":"Antarctica","latitude":-69.434063,"longitude":76.339298,"population":60,"scalerank":7,"labelRank":0,"minZoom":6.1,"isCapital":false,"isWorldCity":false,"isMegaCity":false},{"id":"natural-earth-place-1159146085","name":"Palmer Station","nameZh":"帕尔默站","type":"majorCity","featureClass":"Scientific station","countryCode":"AQ","countryName":"Antarctica","latitude":-64.762413,"longitude":-64.046876,"population":46,"scalerank":7,"labelRank":0,"minZoom":4,"isCapital":false,"isWorldCity":false,"isMegaCity":false},{"id":"natural-earth-place-1159146155","name":"Orcadas Station","nameZh":"奥尔卡达斯站","type":"majorCity","featureClass":"Scientific station","countryCode":"AQ","countryName":"Antarctica","latitude":-60.732896,"longitude":-44.733301,"population":45,"scalerank":7,"labelRank":0,"minZoom":6.1,"isCapital":false,"isWorldCity":false,"isMegaCity":false},{"id":"natural-earth-place-1159146149","name":"Gen. O'Higgins Base","nameZh":"貝納爾多·奧伊金斯將軍站","type":"majorCity","featureClass":"Scientific station","countryCode":"AQ","countryName":"Antarctica","latitude":-63.328418,"longitude":-57.889594,"population":44,"scalerank":7,"labelRank":0,"minZoom":6.1,"isCapital":false,"isWorldCity":false,"isMegaCity":false},{"id":"natural-earth-place-1159146127","name":"Troll Station","nameZh":"特羅爾站","type":"majorCity","featureClass":"Scientific station","countryCode":"AQ","countryName":"Antarctica","latitude":-72.01629,"longitude":2.533323,"population":44,"scalerank":7,"labelRank":0,"minZoom":6.1,"isCapital":false,"isWorldCity":false,"isMegaCity":false},{"id":"natural-earth-place-1159146075","name":"Capitan Arturo Prat Station","nameZh":"阿圖羅·普拉特艦長站","type":"majorCity","featureClass":"Scientific station","countryCode":"AQ","countryName":"Antarctica","latitude":-62.499507,"longitude":-59.683319,"population":41,"scalerank":7,"labelRank":0,"minZoom":6.1,"isCapital":false,"isWorldCity":false,"isMegaCity":false},{"id":"natural-earth-place-1159146093","name":"Great Wall Station","nameZh":"中國南極長城站","type":"majorCity","featureClass":"Scientific station","countryCode":"AQ","countryName":"Antarctica","latitude":-62.21632,"longitude":-58.966696,"population":40,"scalerank":7,"labelRank":0,"minZoom":5,"isCapital":false,"isWorldCity":false,"isMegaCity":false},{"id":"natural-earth-place-1159146133","name":"Neumayer Station III","nameZh":"格奧爾格馮諾伊邁爾站","type":"majorCity","featureClass":"Scientific station","countryCode":"AQ","countryName":"Antarctica","latitude":-70.890397,"longitude":-7.838438,"population":40,"scalerank":7,"labelRank":0,"minZoom":6.1,"isCapital":false,"isWorldCity":false,"isMegaCity":false},{"id":"natural-earth-place-1159146143","name":"Sobral Base","nameZh":"索布拉爾基地","type":"majorCity","featureClass":"Scientific station","countryCode":"AQ","countryName":"Antarctica","latitude":-81.179085,"longitude":-40.501532,"population":40,"scalerank":7,"labelRank":0,"minZoom":6.1,"isCapital":false,"isWorldCity":false,"isMegaCity":false},{"id":"natural-earth-place-1159146119","name":"Concordia Research Station","nameZh":"康宏站","type":"majorCity","featureClass":"Scientific station","countryCode":"AQ","countryName":"Antarctica","latitude":-74.666309,"longitude":124.167036,"population":30,"scalerank":7,"labelRank":0,"minZoom":6.7,"isCapital":false,"isWorldCity":false,"isMegaCity":false},{"id":"natural-earth-place-1159146107","name":"Vostok Station","nameZh":"沃斯托克站","type":"majorCity","featureClass":"Scientific station","countryCode":"AQ","countryName":"Antarctica","latitude":-78.466284,"longitude":106.800034,"population":25,"scalerank":7,"labelRank":0,"minZoom":6.7,"isCapital":false,"isWorldCity":false,"isMegaCity":false},{"id":"natural-earth-place-1159146095","name":"Escudero Base","nameZh":"胡里奧·埃斯庫德羅教授站","type":"majorCity","featureClass":"Scientific station","countryCode":"AQ","countryName":"Antarctica","latitude":-62.194963,"longitude":-58.952666,"population":20,"scalerank":7,"labelRank":0,"minZoom":6.1,"isCapital":false,"isWorldCity":false,"isMegaCity":false},{"id":"natural-earth-place-1159146147","name":"San Martín Base","nameZh":"聖馬丁站","type":"majorCity","featureClass":"Scientific station","countryCode":"AQ","countryName":"Antarctica","latitude":-68.116322,"longitude":-67.099998,"population":20,"scalerank":7,"labelRank":0,"minZoom":6.1,"isCapital":false,"isWorldCity":false,"isMegaCity":false},{"id":"natural-earth-place-1159146145","name":"Aboa Station","nameZh":"阿波研究站","type":"majorCity","featureClass":"Scientific station","countryCode":"AQ","countryName":"Antarctica","latitude":-75.049594,"longitude":-13.416711,"population":18,"scalerank":7,"labelRank":0,"minZoom":6.1,"isCapital":false,"isWorldCity":false,"isMegaCity":false},{"id":"natural-earth-place-1159146129","name":"Svea Station","nameZh":"斯維站","type":"majorCity","featureClass":"Scientific station","countryCode":"AQ","countryName":"Antarctica","latitude":-74.582904,"longitude":-11.21669,"population":10,"scalerank":7,"labelRank":0,"minZoom":6.1,"isCapital":false,"isWorldCity":false,"isMegaCity":false},{"id":"natural-earth-place-1159146125","name":"Wasa Station","nameZh":"瓦薩站","type":"majorCity","featureClass":"Scientific station","countryCode":"AQ","countryName":"Antarctica","latitude":-73.049612,"longitude":-13.416711,"population":10,"scalerank":7,"labelRank":0,"minZoom":6.1,"isCapital":false,"isWorldCity":false,"isMegaCity":false},{"id":"natural-earth-place-1159146157","name":"Signy Research Station","nameZh":"錫格蘭尼島站","type":"majorCity","featureClass":"Scientific station","countryCode":"AQ","countryName":"Antarctica","latitude":-60.631308,"longitude":-45.600703,"population":8,"scalerank":7,"labelRank":0,"minZoom":6.1,"isCapital":false,"isWorldCity":false,"isMegaCity":false},{"id":"natural-earth-place-1159146097","name":"Elephant Island","nameZh":"象島","type":"majorCity","featureClass":"Scientific station","countryCode":"AQ","countryName":"Antarctica","latitude":-61.999589,"longitude":-57.999985,"population":6,"scalerank":7,"labelRank":0,"minZoom":6.1,"isCapital":false,"isWorldCity":false,"isMegaCity":false},{"id":"natural-earth-place-1159146109","name":"Peter I Island","nameZh":"彼得一世島","type":"majorCity","featureClass":"Scientific station","countryCode":"AQ","countryName":"Antarctica","latitude":-68.795161,"longitude":-90.584203,"population":1,"scalerank":7,"labelRank":0,"minZoom":6.1,"isCapital":false,"isWorldCity":false,"isMegaCity":false},{"id":"natural-earth-place-1159151575","name":"New York","nameZh":"紐約","type":"majorCity","featureClass":"Populated place","countryCode":"US","countryName":"United States of America","admin1":"New York","latitude":40.751925,"longitude":-73.981963,"population":19040000,"scalerank":0,"labelRank":1,"minZoom":1.7,"isCapital":false,"isWorldCity":true,"isMegaCity":true},{"id":"natural-earth-place-1159151611","name":"Mumbai","nameZh":"孟買","type":"majorCity","featureClass":"Admin-1 capital","countryCode":"IN","countryName":"India","admin1":"Maharashtra","latitude":19.018936,"longitude":72.855043,"population":18978000,"scalerank":0,"labelRank":1,"minZoom":1.7,"isCapital":false,"isWorldCity":true,"isMegaCity":true},{"id":"natural-earth-place-1159151621","name":"São Paulo","nameZh":"聖保羅","type":"majorCity","featureClass":"Admin-1 capital","countryCode":"BR","countryName":"Brazil","admin1":"São Paulo","latitude":-23.556734,"longitude":-46.626966,"population":18845000,"scalerank":0,"labelRank":1,"minZoom":3,"isCapital":false,"isWorldCity":true,"isMegaCity":true},{"id":"natural-earth-place-1159151405","name":"Delhi","nameZh":"德里","type":"majorCity","featureClass":"Populated place","countryCode":"IN","countryName":"India","admin1":"Delhi","latitude":28.671939,"longitude":77.228058,"population":15926000,"scalerank":2,"labelRank":1,"minZoom":4,"isCapital":false,"isWorldCity":false,"isMegaCity":true},{"id":"natural-earth-place-1159151605","name":"Shanghai","nameZh":"上海市","type":"majorCity","featureClass":"Admin-1 capital","countryCode":"CN","countryName":"China","admin1":"Shanghai","latitude":31.218398,"longitude":121.434559,"population":14987000,"scalerank":0,"labelRank":1,"minZoom":2,"isCapital":false,"isWorldCity":true,"isMegaCity":true},{"id":"natural-earth-place-1159151617","name":"Kolkata","nameZh":"加爾各答","type":"majorCity","featureClass":"Admin-1 capital","countryCode":"IN","countryName":"India","admin1":"West Bengal","latitude":22.496915,"longitude":88.32273,"population":14787000,"scalerank":0,"labelRank":1,"minZoom":3.7,"isCapital":false,"isWorldCity":false,"isMegaCity":true},{"id":"natural-earth-place-1159151569","name":"Los Angeles","nameZh":"洛杉磯","type":"majorCity","featureClass":"Populated place","countryCode":"US","countryName":"United States of America","admin1":"California","latitude":33.991924,"longitude":-118.181926,"population":12500000,"scalerank":0,"labelRank":1,"minZoom":2,"isCapital":false,"isWorldCity":true,"isMegaCity":true},{"id":"natural-earth-place-1159151619","name":"Rio de Janeiro","nameZh":"里約熱內盧","type":"majorCity","featureClass":"Admin-1 capital","countryCode":"BR","countryName":"Brazil","admin1":"Rio de Janeiro","latitude":-22.923077,"longitude":-43.226967,"population":11748000,"scalerank":0,"labelRank":1,"minZoom":1.7,"isCapital":false,"isWorldCity":true,"isMegaCity":true},{"id":"natural-earth-place-1159151595","name":"Beijing","nameZh":"北京市","type":"majorCity","featureClass":"Admin-0 capital","countryCode":"CN","countryName":"China","admin1":"Beijing","latitude":39.930838,"longitude":116.38634,"population":11106000,"scalerank":0,"labelRank":1,"minZoom":1.7,"isCapital":true,"isWorldCity":true,"isMegaCity":true},{"id":"natural-earth-place-1159151599","name":"Jakarta","nameZh":"雅加達","type":"majorCity","featureClass":"Admin-0 capital","countryCode":"ID","countryName":"Indonesia","admin1":"Jakarta Raya","latitude":-6.172472,"longitude":106.827492,"population":9125000,"scalerank":0,"labelRank":1,"minZoom":2.1,"isCapital":true,"isWorldCity":true,"isMegaCity":true},{"id":"natural-earth-place-1159151491","name":"Chicago","nameZh":"芝加哥","type":"majorCity","featureClass":"Populated place","countryCode":"US","countryName":"United States of America","admin1":"Illinois","latitude":41.831937,"longitude":-87.752001,"population":8990000,"scalerank":1,"labelRank":1,"minZoom":3,"isCapital":false,"isWorldCity":true,"isMegaCity":true},{"id":"natural-earth-place-1159151331","name":"Guangzhou","nameZh":"廣州市","type":"majorCity","featureClass":"Admin-1 capital","countryCode":"CN","countryName":"China","admin1":"Guangdong","latitude":23.146927,"longitude":113.323064,"population":8829000,"scalerank":2,"labelRank":1,"minZoom":4,"isCapital":false,"isWorldCity":false,"isMegaCity":true},{"id":"natural-earth-place-1159151215","name":"Shenzhen","nameZh":"深圳市","type":"majorCity","featureClass":"Populated place","countryCode":"CN","countryName":"China","admin1":"Guangdong","latitude":22.554316,"longitude":114.120177,"population":7581000,"scalerank":2,"labelRank":1,"minZoom":4.7,"isCapital":false,"isWorldCity":false,"isMegaCity":true},{"id":"natural-earth-place-1159151367","name":"Wuhan","nameZh":"武漢市","type":"majorCity","featureClass":"Admin-1 capital","countryCode":"CN","countryName":"China","admin1":"Hubei","latitude":30.581977,"longitude":114.268071,"population":7243000,"scalerank":2,"labelRank":1,"minZoom":4,"isCapital":false,"isWorldCity":false,"isMegaCity":true},{"id":"natural-earth-place-1159151381","name":"Tianjin","nameZh":"天津市","type":"majorCity","featureClass":"Admin-1 capital","countryCode":"CN","countryName":"China","admin1":"Tianjin","latitude":39.131972,"longitude":117.198073,"population":7180000,"scalerank":2,"labelRank":1,"minZoom":4,"isCapital":false,"isWorldCity":false,"isMegaCity":true},{"id":"natural-earth-place-1159151431","name":"Chennai","nameZh":"欽奈","type":"majorCity","featureClass":"Admin-1 capital","countryCode":"IN","countryName":"India","admin1":"Tamil Nadu","latitude":13.091934,"longitude":80.278053,"population":7163000,"scalerank":2,"labelRank":1,"minZoom":4,"isCapital":false,"isWorldCity":false,"isMegaCity":true},{"id":"natural-earth-place-1159151543","name":"Bengaluru","nameZh":"邦加羅爾","type":"majorCity","featureClass":"Admin-1 capital","countryCode":"IN","countryName":"India","admin1":"Karnataka","latitude":12.971941,"longitude":77.558064,"population":6787000,"scalerank":1,"labelRank":1,"minZoom":3.7,"isCapital":false,"isWorldCity":false,"isMegaCity":true},{"id":"natural-earth-place-1159151327","name":"Chongqing","nameZh":"重慶市","type":"majorCity","featureClass":"Admin-1 capital","countryCode":"CN","countryName":"China","admin1":"Chongqing","latitude":29.566923,"longitude":106.593036,"population":6461000,"scalerank":2,"labelRank":1,"minZoom":4,"isCapital":false,"isWorldCity":false,"isMegaCity":true},{"id":"natural-earth-place-1159151407","name":"Hyderabad","nameZh":"海德拉巴","type":"majorCity","featureClass":"Admin-1 capital","countryCode":"IN","countryName":"India","admin1":"Telangana","latitude":17.401929,"longitude":78.478008,"population":6376000,"scalerank":2,"labelRank":1,"minZoom":4,"isCapital":false,"isWorldCity":false,"isMegaCity":true},{"id":"natural-earth-place-1159151487","name":"Miami","nameZh":"邁阿密","type":"majorCity","featureClass":"Populated place","countryCode":"US","countryName":"United States of America","admin1":"Florida","latitude":25.789557,"longitude":-80.226052,"population":5585000,"scalerank":1,"labelRank":1,"minZoom":2.1,"isCapital":false,"isWorldCity":true,"isMegaCity":true},{"id":"natural-earth-place-1159150193","name":"Belo Horizonte","nameZh":"美景市","type":"majorCity","featureClass":"Admin-1 capital","countryCode":"BR","countryName":"Brazil","admin1":"Minas Gerais","latitude":-19.91308,"longitude":-43.91695,"population":5575000,"scalerank":4,"labelRank":1,"minZoom":5.1,"isCapital":false,"isWorldCity":false,"isMegaCity":true},{"id":"natural-earth-place-1159151243","name":"Philadelphia","nameZh":"費城","type":"majorCity","featureClass":"Populated place","countryCode":"US","countryName":"United States of America","admin1":"Pennsylvania","latitude":40.001919,"longitude":-75.171942,"population":5492000,"scalerank":2,"labelRank":1,"minZoom":5,"isCapital":false,"isWorldCity":false,"isMegaCity":true},{"id":"natural-earth-place-1159151433","name":"Ahmedabad","nameZh":"阿麼達巴德","type":"majorCity","featureClass":"Populated place","countryCode":"IN","countryName":"India","admin1":"Dadra and Nagar Haveli","latitude":23.031999,"longitude":72.578058,"population":5375000,"scalerank":2,"labelRank":1,"minZoom":4.7,"isCapital":false,"isWorldCity":false,"isMegaCity":true},{"id":"natural-earth-place-1159142843","name":"Haora","nameZh":"豪拉","type":"majorCity","featureClass":"Populated place","countryCode":"IN","countryName":"India","admin1":"West Bengal","latitude":22.58039,"longitude":88.329947,"population":4841638,"scalerank":7,"labelRank":1,"minZoom":6.7,"isCapital":false,"isWorldCity":false,"isMegaCity":false},{"id":"natural-earth-place-1159151235","name":"Dallas","nameZh":"達拉斯","type":"majorCity","featureClass":"Populated place","countryCode":"US","countryName":"United States of America","admin1":"Texas","latitude":32.82197,"longitude":-96.841963,"population":4798000,"scalerank":2,"labelRank":1,"minZoom":4,"isCapital":false,"isWorldCity":false,"isMegaCity":true},{"id":"natural-earth-place-1159151377","name":"Shenyeng","nameZh":"瀋陽市","type":"majorCity","featureClass":"Admin-1 capital","countryCode":"CN","countryName":"China","admin1":"Liaoning","latitude":41.806925,"longitude":123.448028,"population":4787000,"scalerank":2,"labelRank":1,"minZoom":4,"isCapital":false,"isWorldCity":false,"isMegaCity":true},{"id":"natural-earth-place-1159151411","name":"Pune","nameZh":"浦那","type":"majorCity","featureClass":"Populated place","countryCode":"IN","countryName":"India","admin1":"Maharashtra","latitude":18.531963,"longitude":73.848058,"population":4672000,"scalerank":2,"labelRank":1,"minZoom":4,"isCapital":false,"isWorldCity":false,"isMegaCity":true},{"id":"natural-earth-place-1159151333","name":"Dongguan","nameZh":"東莞市","type":"majorCity","featureClass":"Populated place","countryCode":"CN","countryName":"China","admin1":"Guangdong","latitude":23.050835,"longitude":113.742776,"population":4528000,"scalerank":2,"labelRank":1,"minZoom":5.6,"isCapital":false,"isWorldCity":false,"isMegaCity":true},{"id":"natural-earth-place-1159151489","name":"Atlanta","nameZh":"亞特蘭大","type":"majorCity","featureClass":"Admin-1 capital","countryCode":"US","countryName":"United States of America","admin1":"Georgia","latitude":33.83196,"longitude":-84.401895,"population":4506000,"scalerank":1,"labelRank":1,"minZoom":3,"isCapital":false,"isWorldCity":true,"isMegaCity":true},{"id":"natural-earth-place-1159151239","name":"Boston","nameZh":"波士頓","type":"majorCity","featureClass":"Admin-1 capital","countryCode":"US","countryName":"United States of America","admin1":"Massachusetts","latitude":42.331906,"longitude":-71.07196,"population":4467000,"scalerank":2,"labelRank":1,"minZoom":4,"isCapital":false,"isWorldCity":true,"isMegaCity":true},{"id":"natural-earth-place-1159151485","name":"Houston","nameZh":"休士頓","type":"majorCity","featureClass":"Populated place","countryCode":"US","countryName":"United States of America","admin1":"Texas","latitude":29.82192,"longitude":-95.341925,"population":4459000,"scalerank":1,"labelRank":1,"minZoom":3,"isCapital":false,"isWorldCity":false,"isMegaCity":true},{"id":"natural-earth-place-1159151573","name":"Washington,  D.C.","nameZh":"華盛頓哥倫比亞特區","type":"majorCity","featureClass":"Admin-0 capital","countryCode":"US","countryName":"United States of America","admin1":"District of Columbia","latitude":38.901495,"longitude":-77.011364,"population":4338000,"scalerank":0,"labelRank":1,"minZoom":2.1,"isCapital":true,"isWorldCity":true,"isMegaCity":true},{"id":"natural-earth-place-1159151533","name":"Chengdu","nameZh":"成都市","type":"majorCity","featureClass":"Admin-1 capital","countryCode":"CN","countryName":"China","admin1":"Sichuan","latitude":30.671946,"longitude":104.068074,"population":4123000,"scalerank":1,"labelRank":1,"minZoom":3,"isCapital":false,"isWorldCity":false,"isMegaCity":true},{"id":"natural-earth-place-1159151245","name":"Detroit","nameZh":"底特律","type":"majorCity","featureClass":"Populated place","countryCode":"US","countryName":"United States of America","admin1":"Michigan","latitude":42.331906,"longitude":-83.082002,"population":4101000,"scalerank":2,"labelRank":1,"minZoom":4,"isCapital":false,"isWorldCity":false,"isMegaCity":true},{"id":"natural-earth-place-1159151363","name":"Xian","nameZh":"西安市","type":"majorCity","featureClass":"Admin-1 capital","countryCode":"CN","countryName":"China","admin1":"Shaanxi","latitude":34.276971,"longitude":108.89305,"population":4009000,"scalerank":2,"labelRank":1,"minZoom":3.7,"isCapital":false,"isWorldCity":false,"isMegaCity":true},{"id":"natural-earth-place-1159151447","name":"Porto Alegre","nameZh":"阿雷格里港","type":"majorCity","featureClass":"Admin-1 capital","countryCode":"BR","countryName":"Brazil","admin1":"Rio Grande do Sul","latitude":-30.048069,"longitude":-51.201958,"population":3917000,"scalerank":2,"labelRank":1,"minZoom":4,"isCapital":false,"isWorldCity":false,"isMegaCity":true},{"id":"natural-earth-place-1159151435","name":"Surat","nameZh":"蘇拉特","type":"majorCity","featureClass":"Populated place","countryCode":"IN","countryName":"India","admin1":"Dadra and Nagar Haveli","latitude":21.20193,"longitude":72.838094,"population":3842000,"scalerank":2,"labelRank":1,"minZoom":4,"isCapital":false,"isWorldCity":false,"isMegaCity":true},{"id":"natural-earth-place-1159139657","name":"Hechi","nameZh":"河池市","type":"majorCity","featureClass":"Populated place","countryCode":"CN","countryName":"China","admin1":"Guangxi","latitude":24.695252,"longitude":108.083,"population":3830000,"scalerank":7,"labelRank":1,"minZoom":6.7,"isCapital":false,"isWorldCity":false,"isMegaCity":false},{"id":"natural-earth-place-1159151443","name":"Brasília","nameZh":"巴西利亞","type":"majorCity","featureClass":"Admin-0 capital","countryCode":"BR","countryName":"Brazil","admin1":"Distrito Federal","latitude":-15.781394,"longitude":-47.917998,"population":3716996,"scalerank":2,"labelRank":1,"minZoom":3.7,"isCapital":true,"isWorldCity":false,"isMegaCity":true},{"id":"natural-earth-place-1159151385","name":"Nanjing","nameZh":"南京市","type":"majorCity","featureClass":"Admin-1 capital","countryCode":"CN","countryName":"China","admin1":"Jiangsu","latitude":32.051965,"longitude":118.778029,"population":3679000,"scalerank":2,"labelRank":1,"minZoom":4,"isCapital":false,"isWorldCity":false,"isMegaCity":true},{"id":"natural-earth-place-1159151325","name":"Guiyang","nameZh":"貴陽市","type":"majorCity","featureClass":"Admin-1 capital","countryCode":"CN","countryName":"China","admin1":"Guizhou","latitude":26.581989,"longitude":106.718093,"population":3662000,"scalerank":2,"labelRank":1,"minZoom":4.7,"isCapital":false,"isWorldCity":false,"isMegaCity":true},{"id":"natural-earth-place-1159151461","name":"Recife","nameZh":"勒西菲","type":"majorCity","featureClass":"Admin-1 capital","countryCode":"BR","countryName":"Brazil","admin1":"Pernambuco","latitude":-8.0737,"longitude":-34.917551,"population":3651000,"scalerank":2,"labelRank":1,"minZoom":3.7,"isCapital":false,"isWorldCity":false,"isMegaCity":true},{"id":"natural-earth-place-1159151397","name":"Harbin","nameZh":"哈爾濱市","type":"majorCity","featureClass":"Admin-1 capital","countryCode":"CN","countryName":"China","admin1":"Heilongjiang","latitude":45.75193,"longitude":126.648039,"population":3621000,"scalerank":2,"labelRank":1,"minZoom":3.7,"isCapital":false,"isWorldCity":false,"isMegaCity":true},{"id":"natural-earth-place-1159151451","name":"Fortaleza","nameZh":"福塔萊薩","type":"majorCity","featureClass":"Admin-1 capital","countryCode":"BR","countryName":"Brazil","admin1":"Ceará","latitude":-3.748072,"longitude":-38.581927,"population":3602319,"scalerank":2,"labelRank":1,"minZoom":4,"isCapital":false,"isWorldCity":false,"isMegaCity":true},{"id":"natural-earth-place-1159151531","name":"Ürümqi","nameZh":"烏魯木齊","type":"majorCity","featureClass":"Admin-1 capital","countryCode":"CN","countryName":"China","admin1":"Xinjiang Uygur","latitude":43.806958,"longitude":87.57306,"population":3575000,"scalerank":1,"labelRank":1,"minZoom":3.7,"isCapital":false,"isWorldCity":false,"isMegaCity":true},{"id":"natural-earth-place-1159151225","name":"Phoenix","nameZh":"鳳凰城","type":"majorCity","featureClass":"Admin-1 capital","countryCode":"US","countryName":"United States of America","admin1":"Arizona","latitude":33.541926,"longitude":-112.071938,"population":3551000,"scalerank":2,"labelRank":1,"minZoom":4,"isCapital":false,"isWorldCity":false,"isMegaCity":true},{"id":"natural-earth-place-1159139683","name":"Zhangzhou","nameZh":"漳州市","type":"majorCity","featureClass":"Populated place","countryCode":"CN","countryName":"China","admin1":"Fujian","latitude":24.520375,"longitude":117.670016,"population":3531147,"scalerank":7,"labelRank":1,"minZoom":6.7,"isCapital":false,"isWorldCity":false,"isMegaCity":false},{"id":"natural-earth-place-1159151453","name":"Salvador","nameZh":"薩爾瓦多","type":"majorCity","featureClass":"Admin-1 capital","countryCode":"BR","countryName":"Brazil","admin1":"Bahia","latitude":-12.968026,"longitude":-38.481933,"population":3484000,"scalerank":2,"labelRank":1,"minZoom":3.7,"isCapital":false,"isWorldCity":false,"isMegaCity":true},{"id":"natural-earth-place-1159151479","name":"San Francisco","nameZh":"舊金山","type":"majorCity","featureClass":"Populated place","countryCode":"US","countryName":"United States of America","admin1":"California","latitude":37.769196,"longitude":-122.417169,"population":3450000,"scalerank":1,"labelRank":1,"minZoom":2.7,"isCapital":false,"isWorldCity":true,"isMegaCity":true},{"id":"natural-earth-place-1159151393","name":"Changchun","nameZh":"長春市","type":"majorCity","featureClass":"Admin-1 capital","countryCode":"CN","countryName":"China","admin1":"Jilin","latitude":43.866954,"longitude":125.338042,"population":3183000,"scalerank":2,"labelRank":1,"minZoom":4,"isCapital":false,"isWorldCity":false,"isMegaCity":true},{"id":"natural-earth-place-1159149913","name":"Dalian","nameZh":"大連市","type":"majorCity","featureClass":"Populated place","countryCode":"CN","countryName":"China","admin1":"Liaoning","latitude":38.924784,"longitude":121.627885,"population":3167000,"scalerank":4,"labelRank":1,"minZoom":5.1,"isCapital":false,"isWorldCity":false,"isMegaCity":true},{"id":"natural-earth-place-1159151425","name":"Kanpur","nameZh":"坎普爾","type":"majorCity","featureClass":"Populated place","countryCode":"IN","countryName":"India","admin1":"Uttar Pradesh","latitude":26.461945,"longitude":80.31805,"population":3162000,"scalerank":2,"labelRank":1,"minZoom":4,"isCapital":false,"isWorldCity":false,"isMegaCity":true},{"id":"natural-earth-place-1159151449","name":"Curitiba","nameZh":"古里提巴","type":"majorCity","featureClass":"Admin-1 capital","countryCode":"BR","countryName":"Brazil","admin1":"Paraná","latitude":-25.418067,"longitude":-49.321944,"population":3084000,"scalerank":2,"labelRank":1,"minZoom":4,"isCapital":false,"isWorldCity":false,"isMegaCity":true},{"id":"natural-earth-place-1159151223","name":"Seattle","nameZh":"西雅圖","type":"majorCity","featureClass":"Populated place","countryCode":"US","countryName":"United States of America","admin1":"Washington","latitude":47.571948,"longitude":-122.341931,"population":3074000,"scalerank":2,"labelRank":1,"minZoom":4,"isCapital":false,"isWorldCity":false,"isMegaCity":true},{"id":"natural-earth-place-1159151217","name":"Zibo","nameZh":"淄博市","type":"majorCity","featureClass":"Populated place","countryCode":"CN","countryName":"China","admin1":"Shandong","latitude":36.801934,"longitude":118.048047,"population":3061000,"scalerank":2,"labelRank":1,"minZoom":4.7,"isCapital":false,"isWorldCity":false,"isMegaCity":true},{"id":"natural-earth-place-1159132667","name":"Irvine","nameZh":"歐文","type":"majorCity","featureClass":"Populated place","countryCode":"US","countryName":"United States of America","admin1":"California","latitude":33.680411,"longitude":-117.82995,"population":3010232,"scalerank":7,"labelRank":1,"minZoom":6.7,"isCapital":false,"isWorldCity":false,"isMegaCity":false},{"id":"natural-earth-place-1159151387","name":"Hangzhou","nameZh":"杭州市","type":"majorCity","featureClass":"Admin-1 capital","countryCode":"CN","countryName":"China","admin1":"Zhejiang","latitude":30.25192,"longitude":120.168073,"population":3007000,"scalerank":2,"labelRank":1,"minZoom":4,"isCapital":false,"isWorldCity":false,"isMegaCity":true},{"id":"natural-earth-place-1159151371","name":"Kunming","nameZh":"昆明市","type":"majorCity","featureClass":"Admin-1 capital","countryCode":"CN","countryName":"China","admin1":"Yunnan","latitude":25.071926,"longitude":102.678029,"population":2931000,"scalerank":2,"labelRank":1,"minZoom":4,"isCapital":false,"isWorldCity":false,"isMegaCity":true},{"id":"natural-earth-place-1159151423","name":"Jaipur","nameZh":"齋浦爾","type":"majorCity","featureClass":"Admin-1 capital","countryCode":"IN","countryName":"India","admin1":"Rajasthan","latitude":26.923079,"longitude":75.808042,"population":2917000,"scalerank":2,"labelRank":1,"minZoom":4,"isCapital":false,"isWorldCity":false,"isMegaCity":true},{"id":"natural-earth-place-1159151227","name":"San Diego","nameZh":"聖地牙哥","type":"majorCity","featureClass":"Populated place","countryCode":"US","countryName":"United States of America","admin1":"California","latitude":32.82197,"longitude":-117.181936,"population":2916000,"scalerank":2,"labelRank":1,"minZoom":4,"isCapital":false,"isWorldCity":false,"isMegaCity":true},{"id":"natural-earth-place-1159151365","name":"Taiyuan","nameZh":"太原市","type":"majorCity","featureClass":"Admin-1 capital","countryCode":"CN","countryName":"China","admin1":"Shanxi","latitude":37.876958,"longitude":112.543112,"population":2913000,"scalerank":2,"labelRank":1,"minZoom":4,"isCapital":false,"isWorldCity":false,"isMegaCity":true},{"id":"natural-earth-place-1159149917","name":"Qingdao","nameZh":"青島市","type":"majorCity","featureClass":"Populated place","countryCode":"CN","countryName":"China","admin1":"Shandong","latitude":36.091925,"longitude":120.328063,"population":2866000,"scalerank":4,"labelRank":1,"minZoom":5,"isCapital":false,"isWorldCity":false,"isMegaCity":true},{"id":"natural-earth-place-1159151339","name":"Surabaya","nameZh":"泗水","type":"majorCity","featureClass":"Admin-1 capital","countryCode":"ID","countryName":"Indonesia","admin1":"Jawa Timur","latitude":-7.24729,"longitude":112.748887,"population":2845000,"scalerank":2,"labelRank":1,"minZoom":4,"isCapital":false,"isWorldCity":false,"isMegaCity":true},{"id":"natural-earth-place-1159151379","name":"Jinan","nameZh":"濟南市","type":"majorCity","featureClass":"Admin-1 capital","countryCode":"CN","countryName":"China","admin1":"Shandong","latitude":36.676928,"longitude":116.993073,"population":2798000,"scalerank":2,"labelRank":1,"minZoom":4,"isCapital":false,"isWorldCity":false,"isMegaCity":true},{"id":"natural-earth-place-1159150305","name":"Campinas","nameZh":"坎皮納斯","type":"majorCity","featureClass":"Populated place","countryCode":"BR","countryName":"Brazil","admin1":"São Paulo","latitude":-22.898066,"longitude":-47.101976,"population":2791000,"scalerank":4,"labelRank":1,"minZoom":5.6,"isCapital":false,"isWorldCity":false,"isMegaCity":true},{"id":"natural-earth-place-1159150147","name":"Lucknow","nameZh":"勒克瑙","type":"majorCity","featureClass":"Admin-1 capital","countryCode":"IN","countryName":"India","admin1":"Uttar Pradesh","latitude":26.856985,"longitude":80.913053,"population":2695000,"scalerank":4,"labelRank":1,"minZoom":5.6,"isCapital":false,"isWorldCity":false,"isMegaCity":true},{"id":"natural-earth-place-1159151375","name":"Zhengzhou","nameZh":"鄭州市","type":"majorCity","featureClass":"Admin-1 capital","countryCode":"CN","countryName":"China","admin1":"Henan","latitude":34.756942,"longitude":113.663147,"population":2636000,"scalerank":2,"labelRank":1,"minZoom":4,"isCapital":false,"isWorldCity":false,"isMegaCity":true},{"id":"natural-earth-place-1159151219","name":"Minneapolis","nameZh":"明尼亞波利斯","type":"majorCity","featureClass":"Populated place","countryCode":"US","countryName":"United States of America","admin1":"Minnesota","latitude":44.981925,"longitude":-93.253732,"population":2616000,"scalerank":2,"labelRank":1,"minZoom":4,"isCapital":false,"isWorldCity":false,"isMegaCity":true},{"id":"natural-earth-place-1159151329","name":"Fuzhou","nameZh":"福州市","type":"majorCity","featureClass":"Admin-1 capital","countryCode":"CN","countryName":"China","admin1":"Fujian","latitude":26.081942,"longitude":119.2981,"population":2606000,"scalerank":2,"labelRank":1,"minZoom":4.7,"isCapital":false,"isWorldCity":false,"isMegaCity":true},{"id":"natural-earth-place-1159151369","name":"Changsha","nameZh":"長沙市","type":"majorCity","featureClass":"Admin-1 capital","countryCode":"CN","countryName":"China","admin1":"Hunan","latitude":28.201916,"longitude":112.968047,"population":2604000,"scalerank":2,"labelRank":1,"minZoom":4.7,"isCapital":false,"isWorldCity":false,"isMegaCity":true},{"id":"natural-earth-place-1159140809","name":"Xiangtan","nameZh":"湘潭市","type":"majorCity","featureClass":"Populated place","countryCode":"CN","countryName":"China","admin1":"Hunan","latitude":27.850431,"longitude":112.900023,"population":2586948,"scalerank":7,"labelRank":1,"minZoom":6.7,"isCapital":false,"isWorldCity":false,"isMegaCity":false},{"id":"natural-earth-place-1159151321","name":"Lanzhou","nameZh":"蘭州市","type":"majorCity","featureClass":"Admin-1 capital","countryCode":"CN","countryName":"China","admin1":"Gansu","latitude":36.057974,"longitude":103.790054,"population":2561000,"scalerank":2,"labelRank":1,"minZoom":4,"isCapital":false,"isWorldCity":false,"isMegaCity":true},{"id":"natural-earth-place-1159149129","name":"Xiamen","nameZh":"廈門市","type":"majorCity","featureClass":"Populated place","countryCode":"CN","countryName":"China","admin1":"Fujian","latitude":24.451938,"longitude":118.078071,"population":2519000,"scalerank":4,"labelRank":1,"minZoom":5.6,"isCapital":false,"isWorldCity":false,"isMegaCity":true},{"id":"natural-earth-place-1159151413","name":"Nagpur","nameZh":"納格普爾","type":"majorCity","featureClass":"Populated place","countryCode":"IN","countryName":"India","admin1":"Maharashtra","latitude":21.171906,"longitude":79.088048,"population":2454000,"scalerank":2,"labelRank":1,"minZoom":4,"isCapital":false,"isWorldCity":false,"isMegaCity":true},{"id":"natural-earth-place-1159149137","name":"Jinxi","nameZh":"錦溪","type":"majorCity","featureClass":"Populated place","countryCode":"CN","countryName":"China","admin1":"Liaoning","latitude":40.752287,"longitude":120.828033,"population":2426000,"scalerank":4,"labelRank":1,"minZoom":5.6,"isCapital":false,"isWorldCity":false,"isMegaCity":true},{"id":"natural-earth-place-1159149907","name":"Shijiazhuang","nameZh":"石家莊市","type":"majorCity","featureClass":"Admin-1 capital","countryCode":"CN","countryName":"China","admin1":"Hebei","latitude":38.051961,"longitude":114.478033,"population":2417000,"scalerank":4,"labelRank":1,"minZoom":5.6,"isCapital":false,"isWorldCity":false,"isMegaCity":true},{"id":"natural-earth-place-1159149151","name":"Jilin","nameZh":"吉林市","type":"majorCity","featureClass":"Populated place","countryCode":"CN","countryName":"China","admin1":"Jilin","latitude":43.851917,"longitude":126.548097,"population":2396000,"scalerank":4,"labelRank":1,"minZoom":5.6,"isCapital":false,"isWorldCity":false,"isMegaCity":true},{"id":"natural-earth-place-1159151335","name":"Bandung","nameZh":"萬隆","type":"majorCity","featureClass":"Admin-1 capital","countryCode":"ID","countryName":"Indonesia","admin1":"Jawa Barat","latitude":-6.948083,"longitude":107.568067,"population":2394000,"scalerank":2,"labelRank":1,"minZoom":4.7,"isCapital":false,"isWorldCity":false,"isMegaCity":true},{"id":"natural-earth-place-1159139809","name":"Bekasi","nameZh":"勿加泗","type":"majorCity","featureClass":"Populated place","countryCode":"ID","countryName":"Indonesia","admin1":"Jakarta Raya","latitude":-6.217258,"longitude":106.972323,"population":2378211,"scalerank":7,"labelRank":1,"minZoom":6.7,"isCapital":false,"isWorldCity":false,"isMegaCity":false},{"id":"natural-earth-place-1159151383","name":"Nanchang","nameZh":"南昌市","type":"majorCity","featureClass":"Admin-1 capital","countryCode":"CN","countryName":"China","admin1":"Jiangxi","latitude":28.681938,"longitude":115.87805,"population":2350000,"scalerank":2,"labelRank":1,"minZoom":4.7,"isCapital":false,"isWorldCity":false,"isMegaCity":true},{"id":"natural-earth-place-1159149923","name":"Wenzhou","nameZh":"溫州市","type":"majorCity","featureClass":"Populated place","countryCode":"CN","countryName":"China","admin1":"Zhejiang","latitude":28.021927,"longitude":120.648147,"population":2350000,"scalerank":4,"labelRank":1,"minZoom":5.1,"isCapital":false,"isWorldCity":false,"isMegaCity":true},{"id":"natural-earth-place-1159151241","name":"Tampa","nameZh":"坦帕","type":"majorCity","featureClass":"Populated place","countryCode":"US","countryName":"United States of America","admin1":"Florida","latitude":27.948934,"longitude":-82.460567,"population":2314000,"scalerank":2,"labelRank":1,"minZoom":5,"isCapital":false,"isWorldCity":false,"isMegaCity":true},{"id":"natural-earth-place-1159151483","name":"Denver","nameZh":"丹佛","type":"majorCity","featureClass":"Admin-1 capital","countryCode":"US","countryName":"United States of America","admin1":"Colorado","latitude":39.741134,"longitude":-104.985962,"population":2313000,"scalerank":1,"labelRank":1,"minZoom":3.7,"isCapital":false,"isWorldCity":false,"isMegaCity":true},{"id":"natural-earth-place-1159149299","name":"Baltimore","nameZh":"巴爾的摩","type":"majorCity","featureClass":"Populated place","countryCode":"US","countryName":"United States of America","admin1":"Maryland","latitude":39.301936,"longitude":-76.621931,"population":2255000,"scalerank":4,"labelRank":1,"minZoom":5.6,"isCapital":false,"isWorldCity":false,"isMegaCity":true},{"id":"natural-earth-place-1159151231","name":"St. Louis","nameZh":"聖路易斯","type":"majorCity","featureClass":"Populated place","countryCode":"US","countryName":"United States of America","admin1":"Missouri","latitude":38.636964,"longitude":-90.241926,"population":2199000,"scalerank":2,"labelRank":1,"minZoom":4,"isCapital":false,"isWorldCity":false,"isMegaCity":true},{"id":"natural-earth-place-1159149131","name":"Nanchong","nameZh":"南充市","type":"majorCity","featureClass":"Populated place","countryCode":"CN","countryName":"China","admin1":"Sichuan","latitude":30.782378,"longitude":106.128051,"population":2174000,"scalerank":4,"labelRank":1,"minZoom":5.6,"isCapital":false,"isWorldCity":false,"isMegaCity":true},{"id":"natural-earth-place-1159151441","name":"Belém","nameZh":"貝倫","type":"majorCity","featureClass":"Admin-1 capital","countryCode":"BR","countryName":"Brazil","admin1":"Pará","latitude":-1.448057,"longitude":-48.481969,"population":2167000,"scalerank":2,"labelRank":1,"minZoom":4,"isCapital":false,"isWorldCity":false,"isMegaCity":true},{"id":"natural-earth-place-1159151323","name":"Nanning","nameZh":"南寧市","type":"majorCity","featureClass":"Admin-1 capital","countryCode":"CN","countryName":"China","admin1":"Guangxi","latitude":22.821934,"longitude":108.318099,"population":2167000,"scalerank":2,"labelRank":1,"minZoom":4,"isCapital":false,"isWorldCity":false,"isMegaCity":true},{"id":"natural-earth-place-1159151429","name":"Patna","nameZh":"巴特那","type":"majorCity","featureClass":"Admin-1 capital","countryCode":"IN","countryName":"India","admin1":"Bihar","latitude":25.626905,"longitude":85.128093,"population":2158000,"scalerank":2,"labelRank":1,"minZoom":4.7,"isCapital":false,"isWorldCity":false,"isMegaCity":true},{"id":"natural-earth-place-1159149143","name":"Zaozhuang","nameZh":"棗莊市","type":"majorCity","featureClass":"Populated place","countryCode":"CN","countryName":"China","admin1":"Shandong","latitude":34.881947,"longitude":117.568077,"population":2145000,"scalerank":4,"labelRank":1,"minZoom":5.1,"isCapital":false,"isWorldCity":false,"isMegaCity":true},{"id":"natural-earth-place-1159149139","name":"Yantai","nameZh":"煙台市","type":"majorCity","featureClass":"Populated place","countryCode":"CN","countryName":"China","admin1":"Shandong","latitude":37.532354,"longitude":121.398075,"population":2116000,"scalerank":4,"labelRank":1,"minZoom":5.6,"isCapital":false,"isWorldCity":false,"isMegaCity":true},{"id":"natural-earth-place-1159151307","name":"Medan","nameZh":"棉蘭","type":"majorCity","featureClass":"Admin-1 capital","countryCode":"ID","countryName":"Indonesia","admin1":"Sumatera Utara","latitude":3.58192,"longitude":98.648094,"population":2115000,"scalerank":2,"labelRank":1,"minZoom":4,"isCapital":false,"isWorldCity":false,"isMegaCity":true},{"id":"natural-earth-place-1159149147","name":"Xuzhou","nameZh":"徐州市","type":"majorCity","featureClass":"Populated place","countryCode":"CN","countryName":"China","admin1":"Jiangsu","latitude":34.281958,"longitude":117.178074,"population":2091000,"scalerank":4,"labelRank":1,"minZoom":5.6,"isCapital":false,"isWorldCity":false,"isMegaCity":true},{"id":"natural-earth-place-1159149919","name":"Linyi","nameZh":"臨沂市","type":"majorCity","featureClass":"Populated place","countryCode":"CN","countryName":"China","admin1":"Shandong","latitude":35.081935,"longitude":118.32803,"population":2082000,"scalerank":4,"labelRank":1,"minZoom":5.6,"isCapital":false,"isWorldCity":false,"isMegaCity":true},{"id":"natural-earth-place-1159146977","name":"Haikou","nameZh":"海口市","type":"majorCity","featureClass":"Admin-1 capital","countryCode":"CN","countryName":"China","admin1":"Hainan","latitude":20.050002,"longitude":110.320026,"population":2046189,"scalerank":6,"labelRank":1,"minZoom":6,"isCapital":false,"isWorldCity":false,"isMegaCity":false},{"id":"natural-earth-place-1159133279","name":"Fort Lauderdale","nameZh":"羅德岱堡","type":"majorCity","featureClass":"Populated place","countryCode":"US","countryName":"United States of America","admin1":"Florida","latitude":26.136065,"longitude":-80.141786,"population":2042042,"scalerank":7,"labelRank":1,"minZoom":6.1,"isCapital":false,"isWorldCity":false,"isMegaCity":false},{"id":"natural-earth-place-1159146199","name":"Long Beach","nameZh":"長灘","type":"majorCity","featureClass":"Populated place","countryCode":"US","countryName":"United States of America","admin1":"California","latitude":33.786967,"longitude":-118.158044,"population":2036134,"scalerank":6,"labelRank":1,"minZoom":6,"isCapital":false,"isWorldCity":false,"isMegaCity":false},{"id":"natural-earth-place-1159151395","name":"Baotou","nameZh":"包頭市","type":"majorCity","featureClass":"Populated place","countryCode":"CN","countryName":"China","admin1":"Nei Mongol","latitude":40.654153,"longitude":109.820074,"population":2036000,"scalerank":2,"labelRank":1,"minZoom":4,"isCapital":false,"isWorldCity":false,"isMegaCity":true},{"id":"natural-earth-place-1159149793","name":"Hefei","nameZh":"合肥市","type":"majorCity","featureClass":"Admin-1 capital","countryCode":"CN","countryName":"China","admin1":"Anhui","latitude":31.851977,"longitude":117.278068,"population":2035000,"scalerank":4,"labelRank":1,"minZoom":5.6,"isCapital":false,"isWorldCity":false,"isMegaCity":true},{"id":"natural-earth-place-1159150161","name":"Indore","nameZh":"因多爾","type":"majorCity","featureClass":"Populated place","countryCode":"IN","countryName":"India","admin1":"Madhya Pradesh","latitude":22.717005,"longitude":75.863077,"population":2026000,"scalerank":4,"labelRank":1,"minZoom":5.6,"isCapital":false,"isWorldCity":false,"isMegaCity":true},{"id":"natural-earth-place-1159151459","name":"Goiânia","nameZh":"戈亞尼亞","type":"majorCity","featureClass":"Admin-1 capital","countryCode":"BR","countryName":"Brazil","admin1":"Goiás","latitude":-16.718081,"longitude":-49.301971,"population":2022000,"scalerank":2,"labelRank":1,"minZoom":4.7,"isCapital":false,"isWorldCity":false,"isMegaCity":true},{"id":"natural-earth-place-1159149795","name":"Suzhou","nameZh":"宿州市","type":"majorCity","featureClass":"Populated place","countryCode":"CN","countryName":"China","admin1":"Anhui","latitude":33.638057,"longitude":116.976943,"population":1964000,"scalerank":4,"labelRank":1,"minZoom":5.6,"isCapital":false,"isWorldCity":false,"isMegaCity":true},{"id":"natural-earth-place-1159149135","name":"Nanyang","nameZh":"南陽市","type":"majorCity","featureClass":"Populated place","countryCode":"CN","countryName":"China","admin1":"Henan","latitude":33.002346,"longitude":112.528074,"population":1944000,"scalerank":4,"labelRank":1,"minZoom":5.6,"isCapital":false,"isWorldCity":false,"isMegaCity":true},{"id":"natural-earth-place-1159149925","name":"Ningbo","nameZh":"寧波市","type":"majorCity","featureClass":"Populated place","countryCode":"CN","countryName":"China","admin1":"Zhejiang","latitude":29.881917,"longitude":121.548092,"population":1923000,"scalerank":4,"labelRank":1,"minZoom":5.1,"isCapital":false,"isWorldCity":false,"isMegaCity":true},{"id":"natural-earth-place-1159150515","name":"Cleveland","nameZh":"克里夫蘭","type":"majorCity","featureClass":"Populated place","countryCode":"US","countryName":"United States of America","admin1":"Ohio","latitude":41.471933,"longitude":-81.696944,"population":1890000,"scalerank":3,"labelRank":1,"minZoom":5,"isCapital":false,"isWorldCity":false,"isMegaCity":true},{"id":"natural-earth-place-1159147045","name":"Tangshan","nameZh":"唐山市","type":"majorCity","featureClass":"Populated place","countryCode":"CN","countryName":"China","admin1":"Hebei","latitude":39.626283,"longitude":118.192431,"population":1879000,"scalerank":6,"labelRank":1,"minZoom":6,"isCapital":false,"isWorldCity":false,"isMegaCity":true},{"id":"natural-earth-place-1159150487","name":"Portland","nameZh":"波特蘭","type":"majorCity","featureClass":"Populated place","countryCode":"US","countryName":"United States of America","admin1":"Oregon","latitude":45.52197,"longitude":-122.681936,"population":1875000,"scalerank":3,"labelRank":1,"minZoom":4,"isCapital":false,"isWorldCity":false,"isMegaCity":true},{"id":"natural-earth-place-1159146991","name":"Datong","nameZh":"大同市","type":"majorCity","featureClass":"Populated place","countryCode":"CN","countryName":"China","admin1":"Shanxi","latitude":40.081966,"longitude":113.298053,"population":1873000,"scalerank":6,"labelRank":1,"minZoom":6,"isCapital":false,"isWorldCity":false,"isMegaCity":true},{"id":"natural-earth-place-1159150531","name":"Pittsburgh","nameZh":"匹茲堡","type":"majorCity","featureClass":"Populated place","countryCode":"US","countryName":"United States of America","admin1":"Pennsylvania","latitude":40.431945,"longitude":-80.001931,"population":1838000,"scalerank":3,"labelRank":1,"minZoom":5,"isCapital":false,"isWorldCity":false,"isMegaCity":true},{"id":"natural-earth-place-1159150483","name":"Las Vegas","nameZh":"拉斯維加斯","type":"majorCity","featureClass":"Populated place","countryCode":"US","countryName":"United States of America","admin1":"Nevada","latitude":36.211944,"longitude":-115.221952,"population":1823000,"scalerank":3,"labelRank":1,"minZoom":5,"isCapital":false,"isWorldCity":false,"isMegaCity":true},{"id":"natural-earth-place-1159140995","name":"Shuyang","nameZh":"沭陽","type":"majorCity","featureClass":"Populated place","countryCode":"CN","countryName":"China","admin1":"Jiangsu","latitude":34.129866,"longitude":118.77336,"population":1770000,"scalerank":7,"labelRank":1,"minZoom":6.7,"isCapital":false,"isWorldCity":false,"isMegaCity":false},{"id":"natural-earth-place-1159149187","name":"Vadodara","nameZh":"瓦多達拉","type":"majorCity","featureClass":"Populated place","countryCode":"IN","countryName":"India","admin1":"Dadra and Nagar Haveli","latitude":22.311965,"longitude":73.178073,"population":1756000,"scalerank":4,"labelRank":1,"minZoom":5.6,"isCapital":false,"isWorldCity":false,"isMegaCity":true},{"id":"natural-earth-place-1159151005","name":"Manaus","nameZh":"瑪瑙斯","type":"majorCity","featureClass":"Admin-1 capital","countryCode":"BR","countryName":"Brazil","admin1":"Amazonas","latitude":-3.098086,"longitude":-60.001963,"population":1753000,"scalerank":3,"labelRank":1,"minZoom":4,"isCapital":false,"isWorldCity":false,"isMegaCity":true},{"id":"natural-earth-place-1159147055","name":"Shangqiu","nameZh":"商丘市","type":"majorCity","featureClass":"Populated place","countryCode":"CN","countryName":"China","admin1":"Henan","latitude":34.452361,"longitude":115.64809,"population":1753000,"scalerank":6,"labelRank":1,"minZoom":6,"isCapital":false,"isWorldCity":false,"isMegaCity":true},{"id":"natural-earth-place-1159150839","name":"Palembang","nameZh":"巨港","type":"majorCity","featureClass":"Admin-1 capital","countryCode":"ID","countryName":"Indonesia","admin1":"Sumatera Selatan","latitude":-2.978093,"longitude":104.748084,"population":1749000,"scalerank":3,"labelRank":1,"minZoom":5,"isCapital":false,"isWorldCity":false,"isMegaCity":true},{"id":"natural-earth-place-1159149149","name":"Wuxi","nameZh":"無錫市","type":"majorCity","featureClass":"Populated place","countryCode":"CN","countryName":"China","admin1":"Jiangsu","latitude":31.581942,"longitude":120.298039,"population":1749000,"scalerank":4,"labelRank":1,"minZoom":5.6,"isCapital":false,"isWorldCity":false,"isMegaCity":true},{"id":"natural-earth-place-1159149113","name":"San Bernardino","nameZh":"聖貝納迪諾","type":"majorCity","featureClass":"Populated place","countryCode":"US","countryName":"United States of America","admin1":"California","latitude":34.12233,"longitude":-117.30198,"population":1745000,"scalerank":4,"labelRank":1,"minZoom":5.6,"isCapital":false,"isWorldCity":false,"isMegaCity":true},{"id":"natural-earth-place-1159150985","name":"Bhopal","nameZh":"博帕爾","type":"majorCity","featureClass":"Admin-1 capital","countryCode":"IN","countryName":"India","admin1":"Madhya Pradesh","latitude":23.251934,"longitude":77.408047,"population":1727000,"scalerank":3,"labelRank":1,"minZoom":5,"isCapital":false,"isWorldCity":false,"isMegaCity":true},{"id":"natural-earth-place-1159149941","name":"Hohhot","nameZh":"呼和浩特市","type":"majorCity","featureClass":"Admin-1 capital","countryCode":"CN","countryName":"China","admin1":"Nei Mongol","latitude":40.821921,"longitude":111.65805,"population":1726000,"scalerank":4,"labelRank":1,"minZoom":5.1,"isCapital":false,"isWorldCity":false,"isMegaCity":true},{"id":"natural-earth-place-1159147063","name":"Luoyang","nameZh":"洛陽市","type":"majorCity","featureClass":"Populated place","countryCode":"CN","countryName":"China","admin1":"Henan","latitude":34.681934,"longitude":112.468129,"population":1715000,"scalerank":6,"labelRank":1,"minZoom":6,"isCapital":false,"isWorldCity":false,"isMegaCity":true},{"id":"natural-earth-place-1159148975","name":"Santos","nameZh":"桑托斯","type":"majorCity","featureClass":"Populated place","countryCode":"BR","countryName":"Brazil","admin1":"São Paulo","latitude":-23.951778,"longitude":-46.334889,"population":1709000,"scalerank":6,"labelRank":1,"minZoom":6,"isCapital":false,"isWorldCity":false,"isMegaCity":true},{"id":"natural-earth-place-1159146993","name":"Jianmen","nameZh":"荊門市","type":"majorCity","featureClass":"Populated place","countryCode":"CN","countryName":"China","admin1":"Hubei","latitude":30.651999,"longitude":113.158061,"population":1708000,"scalerank":6,"labelRank":1,"minZoom":6,"isCapital":false,"isWorldCity":false,"isMegaCity":true},{"id":"natural-earth-place-1159147621","name":"Vitória","nameZh":"維多利亞","type":"majorCity","featureClass":"Admin-1 capital","countryCode":"BR","countryName":"Brazil","admin1":"Espírito Santo","latitude":-20.322047,"longitude":-40.367942,"population":1704000,"scalerank":6,"labelRank":1,"minZoom":6,"isCapital":false,"isWorldCity":false,"isMegaCity":true},{"id":"natural-earth-place-1159150989","name":"Coimbatore","nameZh":"科伊巴拓雷","type":"majorCity","featureClass":"Populated place","countryCode":"IN","countryName":"India","admin1":"Tamil Nadu","latitude":11.001906,"longitude":76.948075,"population":1696000,"scalerank":3,"labelRank":1,"minZoom":5,"isCapital":false,"isWorldCity":false,"isMegaCity":true},{"id":"natural-earth-place-1159149955","name":"Daqing","nameZh":"大慶市","type":"majorCity","featureClass":"Populated place","countryCode":"CN","countryName":"China","admin1":"Heilongjiang","latitude":46.581905,"longitude":124.998062,"population":1693000,"scalerank":4,"labelRank":1,"minZoom":5.1,"isCapital":false,"isWorldCity":false,"isMegaCity":true},{"id":"natural-earth-place-1159146895","name":"Luan","nameZh":"六安市","type":"majorCity","featureClass":"Populated place","countryCode":"CN","countryName":"China","admin1":"Anhui","latitude":31.752293,"longitude":116.478066,"population":1690000,"scalerank":6,"labelRank":1,"minZoom":6,"isCapital":false,"isWorldCity":false,"isMegaCity":true},{"id":"natural-earth-place-1159146887","name":"Wanzhou","nameZh":"萬州","type":"majorCity","featureClass":"Populated place","countryCode":"CN","countryName":"China","admin1":"Chongqing","latitude":30.819991,"longitude":108.400039,"population":1680000,"scalerank":6,"labelRank":1,"minZoom":6,"isCapital":false,"isWorldCity":false,"isMegaCity":false},{"id":"natural-earth-place-1159150479","name":"San Jose","nameZh":"聖荷西","type":"majorCity","featureClass":"Populated place","countryCode":"US","countryName":"United States of America","admin1":"California","latitude":37.301929,"longitude":-121.851935,"population":1668000,"scalerank":3,"labelRank":1,"minZoom":5,"isCapital":false,"isWorldCity":false,"isMegaCity":true},{"id":"natural-earth-place-1159149145","name":"Suzhou","nameZh":"蘇州市","type":"majorCity","featureClass":"Populated place","countryCode":"CN","countryName":"China","admin1":"Jiangsu","latitude":31.302424,"longitude":120.618071,"population":1650000,"scalerank":4,"labelRank":1,"minZoom":5.6,"isCapital":false,"isWorldCity":false,"isMegaCity":true},{"id":"natural-earth-place-1159150137","name":"Ludhiana","nameZh":"盧迪亞納","type":"majorCity","featureClass":"Populated place","countryCode":"IN","countryName":"India","admin1":"Punjab","latitude":30.929708,"longitude":75.870312,"population":1649000,"scalerank":4,"labelRank":1,"minZoom":5.6,"isCapital":false,"isWorldCity":false,"isMegaCity":true},{"id":"natural-earth-place-1159150895","name":"Qiqihar","nameZh":"齊齊哈爾市","type":"majorCity","featureClass":"Populated place","countryCode":"CN","countryName":"China","admin1":"Heilongjiang","latitude":47.346923,"longitude":123.988046,"population":1641000,"scalerank":3,"labelRank":1,"minZoom":4,"isCapital":false,"isWorldCity":false,"isMegaCity":true},{"id":"natural-earth-place-1159149911","name":"Anshan","nameZh":"鞍山市","type":"majorCity","featureClass":"Populated place","countryCode":"CN","countryName":"China","admin1":"Liaoning","latitude":41.116967,"longitude":122.938085,"population":1639000,"scalerank":4,"labelRank":1,"minZoom":5.6,"isCapital":false,"isWorldCity":false,"isMegaCity":true},{"id":"natural-earth-place-1159150517","name":"Cincinnati","nameZh":"辛辛那提","type":"majorCity","featureClass":"Populated place","countryCode":"US","countryName":"United States of America","admin1":"Ohio","latitude":39.163831,"longitude":-84.458869,"population":1636000,"scalerank":3,"labelRank":1,"minZoom":5,"isCapital":false,"isWorldCity":false,"isMegaCity":true},{"id":"natural-earth-place-1159149909","name":"Handan","nameZh":"邯鄲市","type":"majorCity","featureClass":"Populated place","countryCode":"CN","countryName":"China","admin1":"Hebei","latitude":36.581921,"longitude":114.478033,"population":1631000,"scalerank":4,"labelRank":1,"minZoom":5.1,"isCapital":false,"isWorldCity":false,"isMegaCity":true},{"id":"natural-earth-place-1159147085","name":"Taian","nameZh":"泰安市","type":"majorCity","featureClass":"Populated place","countryCode":"CN","countryName":"China","admin1":"Shandong","latitude":36.201944,"longitude":117.11813,"population":1629000,"scalerank":6,"labelRank":1,"minZoom":6,"isCapital":false,"isWorldCity":false,"isMegaCity":true},{"id":"natural-earth-place-1159150481","name":"Sacramento","nameZh":"沙加緬度","type":"majorCity","featureClass":"Admin-1 capital","countryCode":"US","countryName":"United States of America","admin1":"California","latitude":38.576967,"longitude":-121.471984,"population":1604000,"scalerank":3,"labelRank":1,"minZoom":5,"isCapital":false,"isWorldCity":false,"isMegaCity":true},{"id":"natural-earth-place-1159150825","name":"Shantou","nameZh":"汕頭市","type":"majorCity","featureClass":"Populated place","countryCode":"CN","countryName":"China","admin1":"Guangdong","latitude":23.371952,"longitude":116.66808,"population":1601000,"scalerank":3,"labelRank":1,"minZoom":5,"isCapital":false,"isWorldCity":false,"isMegaCity":true},{"id":"natural-earth-place-1159149175","name":"Agra","nameZh":"阿格拉","type":"majorCity","featureClass":"Populated place","countryCode":"IN","countryName":"India","admin1":"Uttar Pradesh","latitude":27.172366,"longitude":78.013075,"population":1592000,"scalerank":4,"labelRank":1,"minZoom":5.6,"isCapital":false,"isWorldCity":false,"isMegaCity":true},{"id":"natural-earth-place-1159149797","name":"Zhanjiang","nameZh":"湛江市","type":"majorCity","featureClass":"Populated place","countryCode":"CN","countryName":"China","admin1":"Guangdong","latitude":21.20193,"longitude":110.378076,"population":1590000,"scalerank":4,"labelRank":1,"minZoom":5.6,"isCapital":false,"isWorldCity":false,"isMegaCity":true},{"id":"natural-earth-place-1159130467","name":"Kalyan","nameZh":"卡延","type":"majorCity","featureClass":"Populated place","countryCode":"IN","countryName":"India","admin1":"Maharashtra","latitude":19.250232,"longitude":73.160175,"population":1576614,"scalerank":8,"labelRank":1,"minZoom":7,"isCapital":false,"isWorldCity":false,"isMegaCity":false},{"id":"natural-earth-place-1159146997","name":"Xiantao","nameZh":"仙桃市","type":"majorCity","featureClass":"Populated place","countryCode":"CN","countryName":"China","admin1":"Hubei","latitude":30.372352,"longitude":113.438096,"population":1556000,"scalerank":6,"labelRank":1,"minZoom":6,"isCapital":false,"isWorldCity":false,"isMegaCity":true},{"id":"natural-earth-place-1159147083","name":"Weifang","nameZh":"濰坊市","type":"majorCity","featureClass":"Populated place","countryCode":"CN","countryName":"China","admin1":"Shandong","latitude":36.722352,"longitude":119.098164,"population":1553000,"scalerank":6,"labelRank":1,"minZoom":6,"isCapital":false,"isWorldCity":false,"isMegaCity":true},{"id":"natural-earth-place-1159147059","name":"Xinyang","nameZh":"信陽市","type":"majorCity","featureClass":"Populated place","countryCode":"CN","countryName":"China","admin1":"Henan","latitude":32.132322,"longitude":114.068032,"population":1541000,"scalerank":6,"labelRank":1,"minZoom":6,"isCapital":false,"isWorldCity":false,"isMegaCity":true},{"id":"natural-earth-place-1159147025","name":"Luzhou","nameZh":"瀘州市","type":"majorCity","featureClass":"Populated place","countryCode":"CN","countryName":"China","admin1":"Sichuan","latitude":28.881926,"longitude":105.378071,"population":1537000,"scalerank":6,"labelRank":1,"minZoom":6,"isCapital":false,"isWorldCity":false,"isMegaCity":true},{"id":"natural-earth-place-1159150915","name":"Vishakhapatnam","nameZh":"維沙卡帕特南","type":"majorCity","featureClass":"Populated place","countryCode":"IN","countryName":"India","admin1":"Andhra Pradesh","latitude":17.731961,"longitude":83.303036,"population":1529000,"scalerank":3,"labelRank":1,"minZoom":5,"isCapital":false,"isWorldCity":false,"isMegaCity":true},{"id":"natural-earth-place-1159150009","name":"Kochi","nameZh":"科契","type":"majorCity","featureClass":"Populated place","countryCode":"IN","countryName":"India","admin1":"Kerala","latitude":10.016953,"longitude":76.22197,"population":1519000,"scalerank":4,"labelRank":1,"minZoom":5.6,"isCapital":false,"isWorldCity":false,"isMegaCity":true},{"id":"natural-earth-place-1159147363","name":"Oakland","nameZh":"奧克蘭","type":"majorCity","featureClass":"Populated place","countryCode":"US","countryName":"United States of America","admin1":"California","latitude":37.768921,"longitude":-122.221103,"population":1510271,"scalerank":6,"labelRank":1,"minZoom":6,"isCapital":false,"isWorldCity":false,"isMegaCity":false},{"id":"natural-earth-place-1159131309","name":"Niterói","nameZh":"尼泰羅伊","type":"majorCity","featureClass":"Admin-1 capital","countryCode":"BR","countryName":"Brazil","admin1":"Rio de Janeiro","latitude":-22.900012,"longitude":-43.09999,"population":1500513,"scalerank":8,"labelRank":1,"minZoom":7,"isCapital":false,"isWorldCity":false,"isMegaCity":false},{"id":"natural-earth-place-1159147095","name":"Ganzhou","nameZh":"贛州市","type":"majorCity","featureClass":"Populated place","countryCode":"CN","countryName":"China","admin1":"Jiangxi","latitude":25.91998,"longitude":114.950027,"population":1500000,"scalerank":6,"labelRank":1,"minZoom":6,"isCapital":false,"isWorldCity":false,"isMegaCity":false},{"id":"natural-earth-place-1159146879","name":"Liuzhou","nameZh":"柳州市","type":"majorCity","featureClass":"Populated place","countryCode":"CN","countryName":"China","admin1":"Guangxi","latitude":24.281948,"longitude":109.248068,"population":1497000,"scalerank":6,"labelRank":1,"minZoom":6,"isCapital":false,"isWorldCity":false,"isMegaCity":true},